00:00:33.440;I;$POSMST,Start NMEA Logger,V 0.1.9*3B
00:00:33.642;A;Šš¢Ârº’ÂÊb*±1,07,1.00,-13.22,M,43.889,M,,*55
00:00:33.645;A;$GPRMC,115820,A,4310.0201,N,01348.7289,E,0.0000,0.000,290613,,*22
00:00:33.647;I;$POSMGYR,-777,142,-119*58
00:00:33.647;I;$POSMACC,372,112,17696*57
00:00:33.656;A;$GPGSA,A,3,000,M*52
00:00:33.667;A;$GPGSV,2,1,08,15,21,186,29,04,20,090,28,25,36,267,32,17,15,040,32*73
00:00:33.812;A;$GPGSV,2,2,08,12,72,309,36,02,17,123,30,29,05,205,21,24,76,111,17*75
00:00:33.960;A;$GPZDA,115821.00,29,06,2013,00,00*65
00:00:34.048;A;$GPGGA,115821,4310.0201,N,01348.7289,E,1,07,1.00,-13.22,M,43.889,M,,*54
00:00:34.196;A;$GPRMC,115821,A,4310.0201,N,01348.7289,E,0.0000,0.000,290613,,*23
00:00:34.337;A;$GPGSA,A,3,04,15,17,12,24,02,25,,,,,,2.1,1.0,1.8*3F
00:00:34.448;A;$IIVWR,150.0,R,20.9,N,10.8,M,38.7,K*73
00:00:34.535;A;$IIVWT,150.0,R,20.9,N,10.8,M,38.7,K*75
00:00:34.648;I;$POSMGYR,-790,150,-109*53
00:00:34.648;I;$POSMACC,384,56,17540*67
00:00:34.619;A;$IIRSA,0,A,,V*67
00:00:34.660;A;$GPGSV,2,1,08,15,21,186,30,04,20,090,28,25,36,267,32,17,15,040,32*7B
00:00:34.937;A;$GPGSV,2,2,08,12,72,309,36,02,17,123,30,29,05,205,21,24,76,111,18*7A
00:00:34.953;A;$IIGSA,,,,,,,,,,,,,,,,1,*48
00:00:35.015;A;$GPZDA,115822.00,29,06,2013,00,00*66
00:00:35.097;A;$GPGGA,115822,4310.0201,N,01348.7289,E,1,07,1.00,-13.22,M,43.889,M,,*57
00:00:35.250;A;$GPRMC,115822,A,4310.0201,N,01348.7289,E,0.0000,0.000,290613,,*20
00:00:35.391;A;$GPGSA,A,3,04,15,17,12,24,02,25,,,,,,2.1,1.0,1.8*3F
00:00:35.505;A;$IIMTW,17.0,C*15
00:00:35.547;A;$IIZDA,115822,29,06,2013,,*5F
00:00:35.609;A;$IIHVM,3,E*25
00:00:35.649;I;$POSMGYR,-759,128,-111*50
00:00:35.649;I;$POSMACC,376,32,17612*6C
00:00:35.643;A;$IIRSA,0,A,,V*67
00:00:35.684;A;$IIGGA,115822,4310.010,N,01348.720,E,1,08,1,,,,,,*73
00:00:35.796;A;$IIMWD,311.0,T,308.0,M,20.5,N,10.6,M*4C
00:00:35.883;A;$IIVTG,003.0,T,000.0,M,0.1,N,0.2,K*59
00:00:35.968;A;$IIBWC,115822,,,,,,T,,M,,N,*0C
00:00:36.036;A;$IIDBT,4.5,f,1.37,M,0.75,F*17
00:00:36.102;A;$IIGLL,4310.010,N,01348.720,E,115822,A,A*51
00:00:36.200;A;$GPGSV,2,1,08,15,21,186,29,04,20,090,28,25,36,267,32,17,15,040,31*70
00:00:36.346;A;$GPGSV,2,2,08,12,72,309,36,02,17,123,30,29,05,205,22,24,76,111,18*79
00:00:36.492;A;$IIHDG,158.5,,,3,E*36
00:00:36.543;A;$GPZDA,115823.00,29,06,2013,00,00*67
00:00:36.652;I;$POSMGYR,-744,144,-98*66
00:00:36.652;I;$POSMACC,408,44,17612*63
00:00:36.624;A;$GPGGA,115823,4310.0201,N,01348.7289,E,1,07,1.00,-13.22,M,43.889,M,,*56
00:00:36.776;A;$GPRMC,115823,A,4310.0201,N,01348.7289,E,0.0000,0.000,290613,,*21
00:00:36.921;A;$GPGSA,A,3,04,15,17,12,24,02,25,,,,,,2.1,1.0,1.8*3F
00:00:37.031;A;$IIHDM,158.5,M*2B
00:00:37.071;A;$IIHDT,161.0,T*24
00:00:37.114;A;$IIRMC,115823,A,4310.010,N,01348.720,E,0.1,003.0,290613,3,E,A*1C
00:00:37.254;A;$IIRSA,0,A,,V*67
00:00:37.292;A;$IIMWV,153.5,R,22.3,N,A*0C
00:00:37.352;A;$IIMWV,153.5,T,22.3,N,A*0A
00:00:37.412;A;$IIVHW,161.0,T,158.0,M,0.00,N,0.00,K*5F
00:00:37.499;A;$IIVPW,0.00,N,0.00,M*52
00:00:37.555;A;$IIVWR,150.0,R,21.3,N,11.0,M,39.4,K*73
00:00:37.653;I;$POSMGYR,-747,126,-84*6C
00:00:37.653;I;$POSMACC,444,160,17620*5D
00:00:37.640;A;$IIVWT,150.0,R,21.3,N,11.0,M,39.4,K*75
00:00:37.725;A;$IIRSA,0,A,,V*67
00:00:37.763;A;$GPGSV,2,1,08,15,21,186,29,04,20,090,27,25,36,267,32,17,15,040,31*7F
00:00:37.911;A;$GPGSV,2,2,08,12,72,309,36,02,17,123,31,29,05,205,22,24,76,111,18*78
00:00:38.059;A;$GPZDA,115824.00,29,06,2013,00,00*60
00:00:38.139;A;$GPGGA,115824,4310.0201,N,01348.7289,E,1,07,1.00,-13.22,M,43.889,M,,*51
00:00:38.294;A;$GPRMC,115824,A,4310.0201,N,01348.7289,E,0.0000,0.000,290613,,*26
00:00:38.438;A;$GPGSA,A,3,04,15,17,12,24,02,25,,,,,,2.1,1.0,1.8*3F
00:00:38.547;A;$IIBWC,115824,,,,,,T,,M,,N,*0A
00:00:38.656;I;$POSMGYR,-761,113,-99*62
00:00:38.656;I;$POSMACC,356,80,17512*64
00:00:38.616;A;$IIDBT,4.4,f,1.34,M,0.73,F*13
00:00:38.682;A;$IIGLL,4310.010,N,01348.720,E,115824,A,A*57
00:00:38.778;A;$IIHDG,158.0,,,3,E*33
00:00:38.828;A;$IIHDM,158.0,M*2E
00:00:38.871;A;$IIHDT,161.0,T*24
00:00:38.910;A;$IIRMC,115824,A,4310.010,N,01348.720,E,0.1,003.0,290613,3,E,A*1B
00:00:39.053;A;$IIRSA,0,A,,V*67
00:00:39.089;A;$IIMWV,152.5,R,20.5,N,A*09
00:00:39.149;A;$IIMWV,152.5,T,20.5,N,A*0F
00:00:39.209;A;$IIVHW,161.0,T,158.0,M,0.00,N,0.00,K*5F
00:00:39.296;A;$IIVPW,0.00,N,0.00,M*52
00:00:39.352;A;$GPGSV,2,1,08,15,21,186,29,04,20,090,27,25,36,267,32,17,15,040,31*7F
00:00:39.497;A;$GPGSV,2,2,08,12,72,309,36,02,17,123,30,29,05,205,23,24,76,111,17*77
00:00:39.655;I;$POSMGYR,-779,164,-106*5C
00:00:39.655;I;$POSMACC,380,40,17356*65
00:00:39.646;A;$GPZDA,115825.00,29,06,2013,00,00*61
00:00:39.867;A;$GPGGA,115825,4310.0201,N,01348.7289,E,1,07,1.00,-13.22,M,43.889,M,,*50
00:00:39.880;A;$GPRMC,115825,A,4310.0201,N,01348.7289,E,0.0000,0.000,290613,,*27
00:00:40.022;A;$GPGSA,A,3,04,15,17,12,24,02,25,,,,,,2.1,1.0,1.8*3F
00:00:40.134;A;$IIVWR,152.5,R,20.5,N,10.6,M,38.0,K*71
00:00:40.219;A;$IIVWT,152.5,R,20.5,N,10.6,M,38.0,K*77
00:00:40.303;A;$IIRSA,0,A,,V*67
00:00:40.344;A;$IIBWC,115826,,,,,,T,,M,,N,*08
00:00:40.413;A;$IIDBT,4.5,f,1.37,M,0.75,F*17
00:00:40.480;A;$GPGSV,2,1,08,15,21,186,29,04,20,090,27,25,36,267,32,17,15,040,32*7C
00:00:40.657;I;$POSMGYR,-799,143,-79*6E
00:00:40.657;I;$POSMACC,384,76,17584*6D
00:00:40.629;A;$GPGSV,2,2,08,12,72,309,36,02,17,123,30,29,05,205,23,24,76,111,17*77
00:00:40.773;A;$GPZDA,115826.00,29,06,2013,00,00*62
00:00:40.855;A;$GPGGA,115826,4310.0201,N,01348.7289,E,1,07,1.00,-13.22,M,43.889,M,,*53
00:00:41.008;A;$GPRMC,115826,A,4310.0201,N,01348.7289,E,0.0000,0.000,290613,,*24
00:00:41.149;A;$GPGSA,A,3,04,15,17,12,24,02,25,,,,,,2.1,1.0,1.8*3F
00:00:41.266;A;$IIGLL,4310.010,N,01348.720,E,115826,A,A*55
00:00:41.357;A;$IIHDG,159.0,,,3,E*32
00:00:41.408;A;$IIHDM,159.0,M*2F
00:00:41.449;A;$IIHDT,162.0,T*27
00:00:41.492;A;$IIRMC,115826,A,4310.010,N,01348.720,E,0.1,003.0,290613,3,E,A*19
00:00:41.660;I;$POSMGYR,-780,133,-136*5B
00:00:41.660;I;$POSMACC,316,144,17508*52
00:00:41.629;A;$IIRSA,0,A,,V*67
00:00:41.672;A;$IIMWV,151.5,R,20.5,N,A*0A
00:00:41.730;A;$IIMWV,151.5,T,20.5,N,A*0C
00:00:41.790;A;$IIVHW,162.0,T,159.0,M,0.00,N,0.00,K*5D
00:00:41.880;A;$IIVPW,0.00,N,0.00,M*52
00:00:41.931;A;$IIVWR,151.5,R,20.5,N,10.6,M,38.0,K*72
00:00:42.016;A;$GPGSV,2,1,08,15,21,186,29,04,20,090,27,25,36,267,32,17,15,040,32*7C
00:00:42.164;A;$GPGSV,2,2,08,12,72,309,36,02,17,123,30,29,05,205,23,24,76,111,17*77
00:00:42.312;A;$GPZDA,115827.00,29,06,2013,00,00*63
00:00:42.392;A;$GPGGA,115827,4310.0201,N,01348.7289,E,1,07,1.00,-13.22,M,43.889,M,,*52
00:00:42.661;I;$POSMGYR,-739,151,-108*50
00:00:42.661;I;$POSMACC,444,112,17556*5A
00:00:42.545;A;$GPRMC,115827,A,4310.0201,N,01348.7289,E,0.0000,0.000,290613,,*25
00:00:42.689;A;$GPGSA,A,3,04,15,17,12,24,02,25,,,,,,2.1,1.0,1.8*3F
00:00:42.800;A;$IIVWT,151.5,R,20.5,N,10.6,M,38.0,K*74
00:00:42.885;A;$IIRSA,0,A,,V*67
00:00:42.925;A;$IIGGA,115827,4310.010,N,01348.720,E,1,08,1,,,,,,*76
00:00:43.038;A;$IIMWD,314.0,T,311.0,M,20.5,N,10.6,M*41
00:00:43.124;A;$IIVTG,003.0,T,000.0,M,0.1,N,0.2,K*59
00:00:43.209;A;$IIBWC,115828,,,,,,T,,M,,N,*06
00:00:43.278;A;$GPGSV,2,1,08,15,21,186,29,04,20,090,27,25,36,267,32,17,15,040,32*7C
00:00:43.426;A;$GPGSV,2,2,08,12,72,309,36,02,17,123,30,29,05,205,23,24,76,111,16*76
00:00:43.573;A;$GPZDA,115828.00,29,06,2013,00,00*6C
00:00:43.662;I;$POSMGYR,-745,153,-116*56
00:00:43.662;I;$POSMACC,432,88,17704*6C
00:00:43.653;A;$GPGGA,115828,4310.0201,N,01348.7289,E,1,07,1.00,-13.22,M,43.889,M,,*5D
00:00:43.807;A;$GPRMC,115828,A,4310.0201,N,01348.7289,E,0.0000,0.000,290613,,*2A
00:00:43.949;A;$GPGSA,A,3,04,15,17,12,24,02,25,,,,,,2.1,1.0,1.8*3F
00:00:44.060;A;$IIDBT,4.5,f,1.37,M,0.75,F*17
00:00:44.130;A;$IIGLL,4310.010,N,01348.720,E,115828,A,A*5B
00:00:44.223;A;$IIHDG,159.0,,,3,E*32
00:00:44.272;A;$IIHDM,159.0,M*2F
00:00:44.314;A;$IIHDT,162.0,T*27
00:00:44.355;A;$IIRMC,115828,A,4310.010,N,01348.720,E,0.1,003.0,290613,3,E,A*17
00:00:44.494;A;$IIRSA,0,A,,V*67
00:00:44.533;A;$IIMWV,153.0,R,21.1,N,A*08
00:00:44.593;A;$IIMWV,153.0,T,21.1,N,A*0E
00:00:44.664;I;$POSMGYR,-765,153,-85*6F
00:00:44.664;I;$POSMACC,416,84,17648*6F
00:00:44.653;A;$IIVHW,162.5,T,159.5,M,0.00,N,0.00,K*5D
00:00:44.953;A;$IIVPW,0.00,N,0.00,M*52
00:00:44.957;A;$IIVWR,153.0,R,21.1,N,10.9,M,39.1,K*7F
00:00:44.960;A;$GPGSV,2,1,08,15,21,186,29,04,20,090,27,25,36,267,32,17,15,040,32*7C
00:00:45.028;A;$GPGSV,2,2,08,12,72,309,36,02,17,123,30,29,05,205,23,24,76,111,16*76
00:00:45.176;A;$GPZDA,115829.00,29,06,2013,00,00*6D
00:00:45.256;A;$GPGGA,115829,4310.0201,N,01348.7289,E,1,07,1.00,-13.22,M,43.889,M,,*5C
00:00:45.411;A;$GPRMC,115829,A,4310.0201,N,01348.7289,E,0.0000,0.000,290613,,*2B
00:00:45.552;A;$GPGSA,A,3,04,15,17,12,24,02,25,,,,,,2.1,1.0,1.8*3F
00:00:45.804;A;$IIVWT,153.0,R,21.1,N,10.9,M,39.1,K*79
00:00:45.805;I;$POSMGYR,-804,137,-89*69
00:00:45.805;I;$POSMACC,376,40,17444*68
00:00:45.814;A;$IIRSA,0,A,,V*67
00:00:45.817;A;$IIBWC,115830,,,,,,T,,M,,N,*0F
00:00:45.856;A;$GPGSV,2,1,08,15,21,186,29,04,20,090,27,25,36,267,32,17,15,040,32*7C
00:00:46.005;A;$GPGSV,2,2,08,12,72,309,36,02,17,123,31,29,05,205,23,24,76,111,16*77
00:00:46.152;A;$GPZDA,115830.00,29,06,2013,00,00*65
00:00:46.232;A;$GPGGA,115830,4310.0201,N,01348.7289,E,1,07,1.00,-13.22,M,43.889,M,,*54
00:00:46.391;A;$GPRMC,115830,A,4310.0201,N,01348.7289,E,0.0000,0.000,290613,,*23
00:00:46.528;A;$GPGSA,A,3,04,15,17,12,24,02,25,,,,,,2.1,1.0,1.8*3F
00:00:46.641;A;$IIDBT,4.5,f,1.37,M,0.75,F*17
00:00:46.707;A;$IIGLL,4310.010,N,01348.720,E,115830,A,A*52
00:00:46.806;I;$POSMGYR,-764,161,-96*6D
00:00:46.806;I;$POSMACC,408,64,17476*61
00:00:46.803;A;$IIHDG,158.5,,,3,E*36
00:00:46.853;A;$IIHDM,158.5,M*2B
00:00:46.893;A;$IIHDT,161.5,T*21
00:00:46.940;A;$IIRMC,115830,A,4310.010,N,01348.720,E,0.1,003.0,290613,3,E,A*1E
00:00:47.075;A;$IIRSA,0,A,,V*67
00:00:47.115;A;$IIMWV,155.0,R,22.0,N,A*0C
00:00:47.175;A;$IIMWV,155.0,T,22.0,N,A*0A
00:00:47.236;A;$IIVHW,162.0,T,159.0,M,0.00,N,0.00,K*5D
00:00:47.322;A;$IIVPW,0.00,N,0.00,M*52
00:00:47.376;A;$IIVWR,155.0,R,22.0,N,11.3,M,40.7,K*78
00:00:47.460;A;$GPGSV,2,1,08,15,21,186,29,04,20,090,27,25,36,267,32,17,15,040,32*7C
00:00:47.608;A;$GPGSV,2,2,08,12,72,309,36,02,17,123,31,29,05,205,23,24,76,111,16*77
00:00:47.806;I;$POSMGYR,-755,151,-94*6E
00:00:47.806;I;$POSMACC,396,176,17592*58
00:00:47.760;A;$GPZDA,115831.00,29,06,2013,00,00*64
00:00:47.836;A;$GPGGA,115831,4310.0201,N,01348.7289,E,1,07,1.00,-13.22,M,43.889,M,,*55
00:00:47.990;A;$GPRMC,115831,A,4310.0201,N,01348.7289,E,0.0000,0.000,290613,,*22
00:00:48.132;A;$GPGSA,A,3,04,15,17,12,24,02,25,,,,,,2.1,1.0,1.8*3F
00:00:48.245;A;$IIVWT,155.0,R,22.0,N,11.3,M,40.7,K*7E
00:00:48.329;A;$IIRSA,0,A,,V*67
00:00:48.368;A;$IIGSA,,,,,,,,,,,,,,,,1,*48
00:00:48.433;A;$IIMTW,17.0,C*15
00:00:48.472;A;$IIZDA,115832,29,06,2013,,*5E
00:00:48.536;A;$IIHVM,3,E*25
00:00:48.570;A;$GPGSV,2,1,08,15,21,186,29,04,20,090,27,25,36,267,32,17,15,040,32*7C
00:00:48.808;I;$POSMGYR,-784,156,-103*5A
00:00:48.808;I;$POSMACC,420,128,17632*50
00:00:48.718;A;$GPGSV,2,2,08,12,72,309,36,02,17,123,30,29,05,205,23,24,76,111,16*76
00:00:48.864;A;$GPZDA,115832.00,29,06,2013,00,00*67
00:00:48.947;A;$GPGGA,115832,4310.0201,N,01348.7289,E,1,07,1.00,-13.22,M,43.889,M,,*56
00:00:49.101;A;$GPRMC,115832,A,4310.0201,N,01348.7289,E,0.0000,0.000,290613,,*21
00:00:49.241;A;$GPGSA,A,3,04,15,17,12,24,02,25,,,,,,2.1,1.0,1.8*3F
00:00:49.354;A;$IIRSA,0,A,,V*67
00:00:49.392;A;$IIGGA,115832,4310.010,N,01348.720,E,1,08,1,,,,,,*72
00:00:49.507;A;$IIMWD,317.5,T,314.5,M,20.5,N,10.6,M*47
00:00:49.594;A;$IIVTG,003.0,T,000.0,M,0.1,N,0.2,K*59
00:00:49.678;A;$IIBWC,115832,,,,,,T,,M,,N,*0D
00:00:49.745;A;$IIDBT,4.5,f,1.37,M,0.75,F*17
00:00:49.810;I;$POSMGYR,-766,145,-104*53
00:00:49.810;I;$POSMACC,452,140,17644*5A
00:00:49.821;A;$IIGLL,4310.010,N,01348.720,E,115832,A,A*50
00:00:49.908;A;$IIHDG,158.0,,,3,E*33
00:00:49.957;A;$GPGSV,2,1,08,15,21,186,29,04,20,090,27,25,36,267,32,17,15,040,32*7C
00:00:50.106;A;$GPGSV,2,2,08,12,72,309,36,02,17,123,30,29,05,205,23,24,76,111,16*76
00:00:50.253;A;$IIHDM,158.0,M*2E
00:00:50.294;A;$GPZDA,115833.00,29,06,2013,00,00*66
00:00:50.374;A;$GPGGA,115833,4310.0201,N,01348.7289,E,1,07,1.00,-13.22,M,43.889,M,,*57
00:00:50.529;A;$GPRMC,115833,A,4310.0201,N,01348.7289,E,0.0000,0.000,290613,,*20
00:00:50.673;A;$GPGSA,A,3,04,15,17,12,24,02,25,,,,,,2.1,1.0,1.8*3F
00:00:50.810;I;$POSMGYR,-728,138,-110*56
00:00:50.810;I;$POSMACC,380,52,17736*64
00:00:50.782;A;$IIHDT,161.0,T*24
00:00:50.825;A;$IIRMC,115833,A,4310.010,N,01348.720,E,0.1,003.0,290613,3,E,A*1D
00:00:50.964;A;$IIRSA,0,A,,V*67
00:00:51.002;A;$IIMWV,154.0,R,20.0,N,A*0F
00:00:51.062;A;$IIMWV,154.0,T,20.0,N,A*09
00:00:51.123;A;$IIVHW,160.0,T,157.0,M,0.00,N,0.00,K*51
00:00:51.210;A;$IIVPW,0.00,N,0.00,M*52
00:00:51.406;A;$IIVWR,154.0,R,20.0,N,10.3,M,37.0,K*7D
00:00:51.410;A;$IIVWT,154.0,R,20.0,N,10.3,M,37.0,K*7B
00:00:51.436;A;$IIRSA,0,A,,V*67
00:00:51.474;A;$GPGSV,2,1,08,15,21,186,29,04,20,090,28,25,36,267,32,17,15,040,32*73
00:00:51.622;A;$GPGSV,2,2,08,12,72,309,36,02,17,123,30,29,05,205,24,24,76,111,17*70
00:00:51.812;I;$POSMGYR,-777,136,-93*68
00:00:51.812;I;$POSMACC,496,48,17536*6D
00:00:51.770;A;$IIBWC,115834,,,,,,T,,M,,N,*0B
00:00:51.837;A;$GPZDA,115834.00,29,06,2013,00,00*61
00:00:51.919;A;$GPGGA,115834,4310.0201,N,01348.7289,E,1,07,1.00,-13.22,M,43.889,M,,*50
00:00:52.076;A;$GPRMC,115834,A,4310.0201,N,01348.7289,E,0.0000,0.000,290613,,*27
00:00:52.212;A;$GPGSA,A,3,04,15,17,12,24,02,25,,,,,,2.1,1.0,1.8*3F
00:00:52.326;A;$IIDBT,4.5,f,1.37,M,0.75,F*17
00:00:52.392;A;$IIGLL,4310.010,N,01348.720,E,115834,A,A*56
00:00:52.488;A;$IIHDG,158.5,,,3,E*36
00:00:52.537;A;$IIHDM,158.5,M*2B
00:00:52.580;A;$IIHDT,161.5,T*21
00:00:52.621;A;$IIRMC,115834,A,4310.010,N,01348.720,E,0.1,002.0,290613,3,E,A*1B
00:00:52.763;A;$IIRSA,0,A,,V*67
00:00:52.814;I;$POSMGYR,-774,136,-102*52
00:00:52.814;I;$POSMACC,356,108,17552*51
00:00:52.799;A;$IIMWV,155.5,R,19.8,N,A*09
00:00:52.860;A;$IIMWV,155.5,T,19.8,N,A*0F
00:00:52.920;A;$IIVHW,160.5,T,157.5,M,0.00,N,0.00,K*51
00:00:53.007;A;$IIVPW,0.00,N,0.00,M*52
00:00:53.060;A;$IIVWR,155.5,R,19.8,N,10.2,M,36.7,K*7C
00:00:53.147;A;$GPGSV,2,1,08,15,21,186,29,04,20,090,28,25,36,267,32,17,15,040,32*73
00:00:53.293;A;$GPGSV,2,2,08,12,72,309,36,02,17,123,30,29,05,205,24,24,76,111,17*70
00:00:53.445;A;$GPZDA,115835.00,29,06,2013,00,00*60
00:00:53.523;A;$GPGGA,115835,4310.0201,N,01348.7289,E,1,07,1.00,-13.22,M,43.889,M,,*51
00:00:53.678;A;$GPRMC,115835,A,4310.0201,N,01348.7289,E,0.0000,0.000,290613,,*26
00:00:53.817;I;$POSMGYR,-756,121,-100*56
00:00:53.817;I;$POSMACC,460,132,17600*5E
00:00:53.817;A;$GPGSA,A,3,04,15,17,12,24,02,25,,,,,,2.1,1.0,1.8*3F
00:00:53.929;A;$IIVWT,155.5,R,19.8,N,10.2,M,36.7,K*7A
00:00:54.014;A;$IIRSA,0,A,,V*67
00:00:54.054;A;$IIBWC,115836,,,,,,T,,M,,N,*09
00:00:54.126;A;$IIDBT,4.5,f,1.37,M,0.75,F*17
00:00:54.189;A;$GPGSV,2,1,08,15,21,186,29,04,20,090,28,25,36,267,32,17,15,040,32*73
00:00:54.337;A;$GPGSV,2,2,08,12,72,309,36,02,17,123,30,29,05,205,24,24,76,111,17*70
00:00:54.486;A;$GPZDA,115836.00,29,06,2013,00,00*63
00:00:54.565;A;$GPGGA,115836,4310.0201,N,01348.7289,E,1,07,1.00,-13.22,M,43.889,M,,*52
00:00:54.818;I;$POSMGYR,-777,159,-118*53
00:00:54.818;I;$POSMACC,584,136,17540*56
00:00:54.720;A;$GPRMC,115836,A,4310.0201,N,01348.7289,E,0.0000,0.000,290613,,*25
00:00:54.862;A;$GPGSA,A,3,04,15,17,12,24,02,25,,,,,,2.1,1.0,1.8*3F
00:00:54.973;A;$IIGLL,4310.010,N,01348.720,E,115836,A,A*54
00:00:55.068;A;$IIHDG,158.0,,,3,E*33
00:00:55.117;A;$IIHDM,158.0,M*2E
00:00:55.160;A;$IIHDT,161.0,T*24
00:00:55.201;A;$IIRMC,115836,A,4310.010,N,01348.720,E,0.1,002.0,290613,3,E,A*19
00:00:55.341;A;$IIRSA,0,A,,V*67
00:00:55.378;A;$IIMWV,154.0,R,18.7,N,A*03
00:00:55.439;A;$IIMWV,154.0,T,18.7,N,A*05
00:00:55.499;A;$IIVHW,161.5,T,158.5,M,0.00,N,0.00,K*5F
00:00:55.590;A;$IIVPW,0.00,N,0.00,M*52
00:00:55.642;A;$IIVWR,154.0,R,18.7,N,9.6,M,34.6,K*49
00:00:55.819;I;$POSMGYR,-779,130,-131*59
00:00:55.819;I;$POSMACC,372,104,17612*5C
00:00:55.725;A;$GPGSV,2,1,08,15,21,186,29,04,20,090,28,25,36,267,32,17,15,040,31*70
00:00:55.873;A;$GPGSV,2,2,08,12,72,309,36,02,17,123,30,29,05,205,24,24,76,111,17*70
00:00:56.018;A;$GPZDA,115837.00,29,06,2013,00,00*62
00:00:56.100;A;$GPGGA,115837,4310.0201,N,01348.7289,E,1,07,1.00,-13.22,M,43.889,M,,*53
00:00:56.253;A;$GPRMC,115837,A,4310.0201,N,01348.7289,E,0.0000,0.000,290613,,*24
00:00:56.596;A;$GPGSA,A,3,04,15,17,12,24,02,25,,,,,,2.1,1.0,1.8*3F
00:00:56.600;A;$IIVWT,154.0,R,18.7,N,9.6,M,34.6,K*4F
00:00:56.603;A;$IIRSA,0,A,,V*67
00:00:56.631;A;$IIGGA,115837,4310.010,N,01348.720,E,1,08,1,,,,,,*77
00:00:56.820;I;$POSMGYR,-766,163,-120*51
00:00:56.820;I;$POSMACC,424,4,17588*59
00:00:56.743;A;$IIMWD,314.0,T,311.0,M,19.7,N,10.2,M*4D
00:00:56.833;A;$IIVTG,002.0,T,359.0,M,0.1,N,0.2,K*57
00:00:56.915;A;$IIBWC,115838,,,,,,T,,M,,N,*07
00:00:57.123;A;$IIDBT,4.5,f,1.37,M,0.75,F*17
00:00:57.126;A;$GPGSV,2,1,08,15,21,186,29,04,20,090,28,25,36,267,32,17,15,040,32*73
00:00:57.196;A;$GPGSV,2,2,08,12,72,309,36,02,17,123,30,29,05,205,24,24,76,111,16*71
00:00:57.345;A;$GPZDA,115838.00,29,06,2013,00,00*6D
00:00:57.424;A;$GPGGA,115838,4310.0201,N,01348.7289,E,1,07,1.00,-13.22,M,43.889,M,,*5C
00:00:57.579;A;$GPRMC,115838,A,4310.0201,N,01348.7289,E,0.0000,0.000,290613,,*2B
00:00:57.822;I;$POSMGYR,-759,173,-91*67
00:00:57.822;I;$POSMACC,444,-8,17492*74
00:00:57.720;A;$GPGSA,A,3,04,15,17,12,24,02,25,,,,,,2.1,1.0,1.8*3F
00:00:57.837;A;$IIGLL,4310.010,N,01348.720,E,115838,A,A*5A
00:00:57.928;A;$IIHDG,158.5,,,3,E*36
00:00:57.977;A;$IIHDM,158.5,M*2B
00:00:58.020;A;$IIHDT,161.5,T*21
00:00:58.061;A;$IIRMC,115838,A,4310.010,N,01348.720,E,0.1,002.0,290613,3,E,A*17
00:00:58.201;A;$IIRSA,0,A,,V*67
00:00:58.241;A;$IIMWV,148.0,R,19.3,N,A*0B
00:00:58.301;A;$IIMWV,148.0,T,19.3,N,A*0D
00:00:58.361;A;$IIVHW,162.0,T,159.0,M,0.00,N,0.00,K*5D
00:00:58.451;A;$IIVPW,0.00,N,0.00,M*52
00:00:58.501;A;$IIVWR,148.0,R,19.3,N,9.9,M,35.7,K*4E
00:00:58.586;A;$GPGSV,2,1,08,15,21,186,29,04,20,090,28,25,36,267,32,17,15,040,31*70
00:00:58.823;I;$POSMGYR,-770,160,-120*55
00:00:58.823;I;$POSMACC,412,108,17620*50
00:00:58.731;A;$GPGSV,2,2,08,12,72,309,36,02,17,123,30,29,05,205,24,24,76,111,16*71
00:00:58.880;A;$IIVWT,148.0,R,19.3,N,9.9,M,35.7,K*48
00:00:58.961;A;$GPZDA,115839.00,29,06,2013,00,00*6C
00:00:59.044;A;$GPGGA,115839,4310.0201,N,01348.7289,E,1,07,1.00,-13.22,M,43.889,M,,*5D
00:00:59.202;A;$GPRMC,115839,A,4310.0201,N,01348.7289,E,0.0000,0.000,290613,,*2A
00:00:59.339;A;$GPGSA,A,3,04,15,17,12,24,02,25,,,,,,2.1,1.0,1.8*3F
00:00:59.450;A;$IIRSA,0,A,,V*67
00:00:59.491;A;$IIRSA,0,A,,V*67
00:00:59.529;A;$IIBWC,115840,,,,,,T,,M,,N,*08
00:00:59.598;A;$GPGSV,2,1,08,15,21,186,29,04,20,090,28,25,36,267,32,17,15,040,32*73
00:00:59.825;I;$POSMGYR,-754,159,-94*67
00:00:59.825;I;$POSMACC,388,64,17804*67
00:00:59.746;A;$GPGSV,2,2,08,12,72,309,36,02,17,123,30,29,05,205,23,24,76,111,16*76
00:00:59.897;A;$IIDBT,4.5,f,1.37,M,0.75,F*17
00:00:59.960;A;$GPZDA,115840.00,29,06,2013,00,00*62
00:01:00.042;A;$GPGGA,115840,4310.0201,N,01348.7289,E,1,07,1.00,-13.22,M,43.889,M,,*53
00:01:00.194;A;$GPRMC,115840,A,4310.0201,N,01348.7289,E,0.0000,0.000,290613,,*24
00:01:00.336;A;$GPGSA,A,3,04,15,17,12,24,02,25,,,,,,2.1,1.0,1.8*3F
00:01:00.448;A;$IIGLL,4310.010,N,01348.720,E,115840,A,A*55
00:01:00.544;A;$IIHDG,158.0,,,3,E*33
00:01:00.594;A;$IIHDM,158.0,M*2E
00:01:00.639;A;$IIHDT,161.0,T*24
00:01:00.677;A;$IIRMC,115840,A,4310.010,N,01348.720,E,0.1,002.0,290613,3,E,A*18
00:01:00.827;I;$POSMGYR,-745,150,-113*50
00:01:00.827;I;$POSMACC,328,40,17632*60
00:01:00.816;A;$IIRSA,0,A,,V*67
00:01:00.855;A;$IIMWV,152.5,R,19.3,N,A*05
00:01:00.915;A;$IIMWV,152.5,T,19.3,N,A*03
00:01:00.976;A;$IIVHW,162.5,T,159.5,M,0.00,N,0.00,K*5D
00:01:01.062;A;$IIVPW,0.00,N,0.00,M*52
00:01:01.118;A;$IIVWR,152.5,R,19.3,N,9.9,M,35.7,K*40
00:01:01.200;A;$GPGSV,2,1,08,15,21,186,29,04,20,090,28,25,36,267,32,17,15,040,31*70
00:01:01.350;A;$GPGSV,2,2,08,12,72,309,36,02,17,123,30,29,05,205,23,24,76,111,16*76
00:01:01.495;A;$GPZDA,115841.00,29,06,2013,00,00*63
00:01:01.577;A;$GPGGA,115841,4310.0201,N,01348.7289,E,1,07,1.00,-13.22,M,43.889,M,,*52
00:01:01.828;I;$POSMGYR,-777,124,-88*61
00:01:01.828;I;$POSMACC,444,40,17484*62
00:01:01.729;A;$GPRMC,115841,A,4310.0201,N,01348.7289,E,0.0000,0.000,290613,,*25
00:01:01.871;A;$GPGSA,A,3,04,15,17,12,24,02,25,,,,,,2.1,1.0,1.8*3F
00:01:01.984;A;$IIVWT,152.5,R,19.3,N,9.9,M,35.7,K*46
00:01:02.068;A;$IIRSA,0,A,,V*67
00:01:02.105;A;$IIRSA,0,A,,V*67
00:01:02.145;A;$IIGSA,,,,,,,,,,,,,,,,1,*48
00:01:02.208;A;$IIMTW,17.0,C*15
00:01:02.246;A;$GPGSV,2,1,08,15,21,186,29,04,20,090,28,25,36,267,32,17,15,040,31*70
00:01:02.394;A;$GPGSV,2,2,08,12,72,309,36,02,17,123,30,29,05,205,23,24,76,111,16*76
00:01:02.542;A;$GPZDA,115842.00,29,06,2013,00,00*60
00:01:02.622;A;$GPGGA,115842,4310.0201,N,01348.7289,E,1,07,1.00,-13.22,M,43.889,M,,*51
00:01:02.830;I;$POSMGYR,-786,137,-105*59
00:01:02.830;I;$POSMACC,432,60,17428*67
00:01:02.777;A;$GPRMC,115842,A,4310.0201,N,01348.7289,E,0.0000,0.000,290613,,*26
00:01:02.984;A;$GPGSA,A,3,04,15,17,12,24,02,25,,,,,,2.1,1.0,1.8*3F
00:01:03.029;A;$IIZDA,115842,29,06,2013,,*59
00:01:03.096;A;$IIHVM,3,E*25
00:01:03.130;A;$IIRSA,0,A,,V*67
00:01:03.170;A;$IIGGA,115842,4310.010,N,01348.720,E,1,08,1,,,,,,*75
00:01:03.284;A;$IIMWD,313.0,T,310.0,M,18.7,N,9.6,M*76
00:01:03.368;A;$IIVTG,002.0,T,359.0,M,0.1,N,0.2,K*57
00:01:03.452;A;$IIBWC,115842,,,,,,T,,M,,N,*0A
00:01:03.524;A;$IIDBT,4.5,f,1.37,M,0.75,F*17
00:01:03.587;A;$IIGLL,4310.010,N,01348.720,E,115842,A,A*57
00:01:03.683;A;$IIHDG,158.0,,,3,E*33
00:01:03.732;A;$IIHDM,158.0,M*2E
00:01:03.832;I;$POSMGYR,-803,157,-71*6F
00:01:03.832;I;$POSMACC,516,92,17608*6D
00:01:03.774;A;$GPGSV,2,1,08,15,21,186,29,04,20,090,28,25,36,267,32,17,15,040,31*70
00:01:03.921;A;$GPGSV,2,2,08,12,72,309,36,02,17,123,30,29,05,205,23,24,76,111,16*76
00:01:04.069;A;$GPZDA,115843.00,29,06,2013,00,00*61
00:01:04.152;A;$GPGGA,115843,4310.0201,N,01348.7289,E,1,07,1.00,-13.22,M,43.889,M,,*50
00:01:04.303;A;$GPRMC,115843,A,4310.0201,N,01348.7289,E,0.0000,0.000,290613,,*27
00:01:04.444;A;$GPGSA,A,3,04,15,17,12,24,02,25,,,,,,2.1,1.0,1.8*3F
00:01:04.557;A;$IIHDT,161.0,T*24
00:01:04.598;A;$IIRMC,115843,A,4310.010,N,01348.720,E,0.1,002.0,290613,3,E,A*1B
00:01:04.737;A;$IIRSA,0,A,,V*67
00:01:04.778;A;$IIMWV,150.0,R,20.0,N,A*0B
00:01:04.835;I;$POSMGYR,-780,148,-122*52
00:01:04.835;I;$POSMACC,460,128,17580*5E
00:01:04.847;A;$IIMWV,150.0,T,20.0,N,A*0D
00:01:04.898;A;$IIVHW,161.0,T,158.0,M,0.00,N,0.00,K*5F
00:01:04.984;A;$GPALM,1,1,18,0722,00,76da,0f,fffff5dc,fffffd37,a10c73,ffaa8bdc,ffd5743b,4d079c,
00:01:05.149;A;112,001*22
00:01:05.179;A;$IIVPW,0.00,N,0.00,M*52
00:01:05.232;A;$GPALM,1,1,18,0722,00,76e0,24,fffff5db,fffffd3c,a10c75,ffaa8e56,ffd56cb9,4c3784,
00:01:05.396;A;112,001*7C
00:01:05.426;A;$GPALM,1,1,18,0722,00,76da,0f,fffff5dc,fffffd37,a10c73,ffaa8bdc,ffd5743b,4d079c,
00:01:05.591;A;112,001*22
00:01:05.622;A;$GPALM,1,1,18,0722,00,76e0,24,fffff5db,fffffd3c,a10c75,ffaa8e56,ffd56cb9,4c3784,
00:01:05.782;A;112,001*7C
00:01:05.837;I;$POSMGYR,-772,152,-95*69
00:01:05.837;I;$POSMACC,416,88,17516*6B
00:01:05.812;A;$GPALM,1,1,18,0722,00,76e0,24,fffff5db,fffffd3c,a10c75,ffaa8e56,ffd56cb9,4c3784,
00:01:05.976;A;112,001*7C
00:01:06.006;A;$GPALM,1,1,18,0722,00,76e0,24,fffff5db,fffffd3d,a10c75,ffaa8e56,ffd56cb9,4c3784,
00:01:06.170;A;112,000*7A
00:01:06.198;A;$IIVWR,150.0,R,20.0,N,10.3,M,37.0,K*79
00:01:06.285;A;$IIVWT,150.0,R,20.0,N,10.3,M,37.0,K*7F
00:01:06.368;A;$IIRSA,0,A,,V*67
00:01:06.408;A;$IIBWC,115844,,,,,,T,,M,,N,*0C
00:01:06.478;A;$IIDBT,4.5,f,1.37,M,0.75,F*17
00:01:06.542;A;$GPGSV,2,1,08,15,21,186,29,04,20,090,28,25,36,267,32,17,15,040,31*70
00:01:06.690;A;$GPGSV,2,2,08,12,72,309,36,02,17,123,30,29,05,205,24,24,76,111,15*72
00:01:06.838;I;$POSMGYR,-757,147,-87*69
00:01:06.838;I;$POSMACC,460,28,17492*6D
00:01:06.838;A;$GPZDA,115844.00,29,06,2013,00,00*66
00:01:06.918;A;$GPGGA,115844,4310.0201,N,01348.7289,E,1,07,1.00,-13.22,M,43.889,M,,*57
00:01:07.076;A;$GPRMC,115844,A,4310.0201,N,01348.7289,E,0.0000,0.000,290613,,*20
00:01:07.213;A;$GPGSA,A,3,04,15,17,12,24,02,25,,,,,,2.1,1.0,1.8*3F
00:01:07.325;A;$IIGLL,4310.010,N,01348.720,E,115844,A,A*51
00:01:07.421;A;$IIHDG,158.5,,,3,E*36
00:01:07.471;A;$IIHDM,158.5,M*2B
00:01:07.513;A;$IIHDT,161.5,T*21
00:01:07.554;A;$IIRMC,115844,A,4310.010,N,01348.720,E,0.1,002.0,290613,3,E,A*1C
00:01:07.693;A;$IIRSA,0,A,,V*67
00:01:07.733;A;$IIMWV,154.5,R,22.0,N,A*08
00:01:08.005;A;$IIMWV,154.5,T,22.0,N,A*0E
00:01:08.006;I;$POSMGYR,-804,135,-116*5C
00:01:08.006;I;$POSMACC,520,12,17388*6D
00:01:08.016;A;$IIVHW,161.5,T,158.5,M,0.00,N,0.00,K*5F
00:01:08.020;A;$IIVPW,0.00,N,0.00,M*52
00:01:08.023;A;$IIVWR,150.5,R,22.0,N,11.3,M,40.7,K*78
00:01:08.081;A;$GPGSV,2,1,08,15,21,186,29,04,20,090,28,25,36,267,32,17,15,040,31*70
00:01:08.227;A;$GPGSV,2,2,08,12,72,309,36,02,17,123,30,29,05,205,24,24,76,111,15*72
00:01:08.375;A;$GPZDA,115845.00,29,06,2013,00,00*67
00:01:08.596;A;$GPGGA,115845,4310.0201,N,01348.7289,E,1,07,1.00,-13.22,M,43.889,M,,*56
00:01:08.609;A;$GPRMC,115845,A,4310.0201,N,01348.7289,E,0.0000,0.000,290613,,*21
00:01:08.750;A;$GPGSA,A,3,04,15,17,12,24,02,25,,,,,,2.1,1.0,1.8*3F
00:01:08.864;A;$IIVWT,150.5,R,20.9,N,10.8,M,38.7,K*70
00:01:08.947;A;$IIRSA,0,A,,V*67
00:01:09.006;I;$POSMGYR,-745,147,-129*5F
00:01:09.006;I;$POSMACC,440,-64,17844*4D
00:01:08.988;A;$IIBWC,115846,,,,,,T,,M,,N,*0E
00:01:09.057;A;$IIDBT,4.4,f,1.34,M,0.73,F*13
00:01:09.126;A;$GPGSV,2,1,08,15,21,186,29,04,20,090,28,25,36,267,32,17,15,040,31*70
00:01:09.269;A;$GPGSV,2,2,08,12,72,309,36,02,17,123,30,29,05,205,23,24,76,111,16*76
00:01:09.417;A;$GPZDA,115846.00,29,06,2013,00,00*64
00:01:09.499;A;$GPGGA,115846,4310.0201,N,01348.7289,E,1,07,1.00,-13.22,M,43.889,M,,*55
00:01:09.652;A;$GPRMC,115846,A,4310.0201,N,01348.7289,E,0.0000,0.000,290613,,*22
00:01:09.793;A;$GPGSA,A,3,04,15,17,12,24,02,25,,,,,,2.1,1.0,1.8*3F
00:01:09.907;A;$IIGLL,4310.010,N,01348.720,E,115846,A,A*53
00:01:10.008;I;$POSMGYR,-786,159,-122*54
00:01:10.008;I;$POSMACC,348,168,17708*55
00:01:10.005;A;$IIHDG,159.0,,,3,E*32
00:01:10.051;A;$IIHDM,159.0,M*2F
00:01:10.093;A;$IIHDT,162.0,T*27
00:01:10.134;A;$IIRMC,115846,A,4310.010,N,01348.720,E,0.1,002.0,290613,3,E,A*1E
00:01:10.274;A;$IIRSA,0,A,,V*67
00:01:10.313;A;$IIMWV,153.0,R,21.1,N,A*08
00:01:10.374;A;$IIMWV,153.0,T,21.1,N,A*0E
00:01:10.434;A;$IIVHW,161.5,T,158.5,M,0.00,N,0.00,K*5F
00:01:10.521;A;$IIVPW,0.00,N,0.00,M*52
00:01:10.575;A;$IIVWR,151.5,R,21.1,N,10.9,M,39.1,K*78
00:01:10.663;A;$GPGSV,2,1,08,15,21,186,29,04,20,090,28,25,36,267,32,17,15,040,31*70
00:01:10.809;A;$GPGSV,2,2,08,12,72,309,36,02,17,123,30,29,05,205,23,24,76,111,16*76
00:01:11.010;I;$POSMGYR,-734,142,-79*68
00:01:11.010;I;$POSMACC,380,84,17588*68
00:01:10.955;A;$IIVWT,151.5,R,21.1,N,10.9,M,39.1,K*7E
00:01:11.042;A;$GPZDA,115847.00,29,06,2013,00,00*65
00:01:11.121;A;$GPGGA,115847,4310.0201,N,01348.7289,E,1,07,1.00,-13.22,M,43.889,M,,*54
00:01:11.276;A;$GPRMC,115847,A,4310.0201,N,01348.7289,E,0.0000,0.000,290613,,*23
00:01:11.418;A;$GPGSA,A,3,04,15,17,12,24,02,25,,,,,,2.1,1.0,1.8*3F
00:01:11.529;A;$IIRSA,0,A,,V*67
00:01:11.567;A;$IIGGA,115847,4310.010,N,01348.720,E,1,08,1,,,,,,*70
00:01:11.683;A;$IIMWD,313.0,T,310.0,M,21.1,N,10.9,M*4D
00:01:11.769;A;$IIVTG,002.0,T,359.0,M,0.1,N,0.2,K*57
00:01:11.854;A;$IIRSA,0,A,,V*67
00:01:11.891;A;$IIBWC,115848,,,,,,T,,M,,N,*00
00:01:12.011;I;$POSMGYR,-766,141,-69*6D
00:01:12.011;I;$POSMACC,356,8,17732*54
00:01:11.960;A;$IIDBT,4.5,f,1.37,M,0.75,F*17
00:01:12.031;A;$GPGSV,2,1,08,15,21,186,29,04,20,090,28,25,36,267,32,17,15,040,31*70
00:01:12.174;A;$GPGSV,2,2,08,12,72,309,36,02,17,123,31,29,05,205,23,24,76,111,16*77
00:01:12.322;A;$GPZDA,115848.00,29,06,2013,00,00*6A
00:01:12.402;A;$GPGGA,115848,4310.0201,N,01348.7289,E,1,07,1.00,-13.22,M,43.889,M,,*5B
00:01:12.557;A;$GPRMC,115848,A,4310.0201,N,01348.7289,E,0.0000,0.000,290613,,*2C
00:01:12.698;A;$GPGSA,A,3,04,15,17,12,24,02,25,,,,,,2.1,1.0,1.8*3F
00:01:12.809;A;$IIGLL,4310.010,N,01348.720,E,115848,A,A*5D
00:01:12.909;A;$IIHDG,158.0,,,3,E*33
00:01:12.954;A;$IIHDM,158.0,M*2E
00:01:13.013;I;$POSMGYR,-759,117,-60*6B
00:01:13.013;I;$POSMACC,404,56,17576*6D
00:01:12.997;A;$IIHDT,161.0,T*24
00:01:13.037;A;$IIRMC,115848,A,4310.010,N,01348.720,E,0.1,002.0,290613,3,E,A*10
00:01:13.177;A;$IIRSA,0,A,,V*67
00:01:13.218;A;$IIMWV,153.5,R,21.1,N,A*0D
00:01:13.278;A;$IIMWV,153.5,T,21.1,N,A*0B
00:01:13.338;A;$IIVHW,161.0,T,158.0,M,0.00,N,0.00,K*5F
00:01:13.424;A;$IIVPW,0.00,N,0.00,M*52
00:01:13.481;A;$IIVWR,153.0,R,21.1,N,10.9,M,39.1,K*7F
00:01:13.564;A;$IIVWT,153.0,R,20.3,N,10.5,M,37.6,K*7F
00:01:13.650;A;$GPGSV,2,1,08,15,21,186,29,04,20,090,28,25,36,267,32,17,15,040,31*70
00:01:13.796;A;$GPGSV,2,2,08,12,72,309,36,02,17,123,31,29,05,205,23,24,76,111,16*77
00:01:14.014;I;$POSMGYR,-789,147,-96*6A
00:01:14.014;I;$POSMACC,336,44,17572*6C
00:01:13.944;A;$GPZDA,115849.00,29,06,2013,00,00*6B
00:01:14.027;A;$GPGGA,115849,4310.0201,N,01348.7289,E,1,07,1.00,-13.22,M,43.889,M,,*5A
00:01:14.320;A;$GPRMC,115849,A,4310.0201,N,01348.7289,E,0.0000,0.000,290613,,*2D
00:01:14.323;A;$GPGSA,A,3,04,15,17,12,24,02,25,,,,,,2.1,1.0,1.8*3F
00:01:14.432;A;$IIRSA,0,A,,V*67
00:01:14.473;A;$IIRSA,0,A,,V*67
00:01:14.511;A;$IIBWC,115850,,,,,,T,,M,,N,*09
00:01:14.580;A;$IIDBT,4.4,f,1.34,M,0.73,F*13
00:01:14.647;A;$IIGLL,4310.010,N,01348.720,E,115850,A,A*54
00:01:14.742;A;$GPGSV,2,1,08,15,21,186,29,04,20,090,28,25,36,267,32,17,15,040,32*73
00:01:15.016;I;$POSMGYR,-789,141,-94*6E
00:01:15.016;I;$POSMACC,384,80,17492*62
00:01:14.889;A;$GPGSV,2,2,08,12,72,309,36,02,17,123,31,29,05,205,23,24,76,111,16*77
00:01:15.036;A;$GPZDA,115850.00,29,06,2013,00,00*63
00:01:15.118;A;$GPGGA,115850,4310.0201,N,01348.7289,E,1,07,1.00,-13.22,M,43.889,M,,*52
00:01:15.271;A;$GPRMC,115850,A,4310.0201,N,01348.7289,E,0.0000,0.000,290613,,*25
00:01:15.412;A;$GPGSA,A,3,04,15,17,12,24,02,25,,,,,,2.1,1.0,1.8*3F
00:01:15.526;A;$IIHDG,158.5,,,3,E*36
00:01:15.575;A;$IIHDM,159.0,M*2F
00:01:15.617;A;$IIHDT,162.0,T*27
00:01:15.661;A;$IIRMC,115850,A,4310.010,N,01348.720,E,0.1,002.0,290613,3,E,A*19
00:01:15.796;A;$IIRSA,0,A,,V*67
00:01:15.837;A;$IIMWV,152.5,R,20.3,N,A*0F
00:01:15.897;A;$IIMWV,152.5,T,20.3,N,A*09
00:01:16.019;I;$POSMGYR,-790,131,-96*63
00:01:16.019;I;$POSMACC,376,56,17508*66
00:01:15.958;A;$IIVHW,162.0,T,159.0,M,0.00,N,0.00,K*5D
00:01:16.044;A;$IIVPW,0.00,N,0.00,M*52
00:01:16.098;A;$IIVWR,153.0,R,20.3,N,10.5,M,37.6,K*79
00:01:16.184;A;$IIVWT,153.0,R,20.3,N,10.5,M,37.6,K*7F
00:01:16.269;A;$GPGSV,2,1,08,15,21,186,29,04,20,090,28,25,36,267,32,17,15,040,32*73
00:01:16.421;A;$GPGSV,2,2,08,12,72,309,36,02,17,123,31,29,05,205,23,24,76,111,16*77
00:01:16.564;A;$GPZDA,115851.00,29,06,2013,00,00*62
00:01:16.644;A;$GPGGA,115851,4310.0201,N,01348.7289,E,1,07,1.00,-13.22,M,43.889,M,,*53
00:01:16.798;A;$GPRMC,115851,A,4310.0201,N,01348.7289,E,0.0000,0.000,290613,,*24
00:01:17.020;I;$POSMGYR,-788,125,-100*51
00:01:17.020;I;$POSMACC,372,36,17440*69
00:01:16.941;A;$GPGSA,A,3,04,15,17,12,24,02,25,,,,,,2.1,1.0,1.8*3F
00:01:17.054;A;$IIRSA,0,A,,V*67
00:01:17.090;A;$IIRSA,0,A,,V*67
00:01:17.130;A;$IIGSA,,,,,,,,,,,,,,,,1,*48
00:01:17.194;A;$IIMTW,17.0,C*15
00:01:17.232;A;$IIZDA,115852,29,06,2013,,*58
00:01:17.298;A;$GPGSV,2,1,08,15,21,186,29,04,20,090,28,25,36,267,32,17,15,040,31*70
00:01:17.447;A;$GPGSV,2,2,08,12,72,309,36,02,17,123,31,29,05,205,24,24,76,111,16*70
00:01:17.594;A;$GPZDA,115852.00,29,06,2013,00,00*61
00:01:17.675;A;$GPGGA,115852,4310.0201,N,01348.7289,E,1,07,1.00,-13.22,M,43.889,M,,*50
00:01:17.832;A;$GPRMC,115852,A,4310.0201,N,01348.7289,E,0.0000,0.000,290613,,*27
00:01:18.022;I;$POSMGYR,-780,122,-97*61
00:01:18.022;I;$POSMACC,500,40,17460*69
00:01:17.969;A;$GPGSA,A,3,04,15,17,12,24,02,25,,,,,,2.1,1.0,1.8*3F
00:01:18.083;A;$IIHVM,3,E*25
00:01:18.116;A;$IIGGA,115852,4310.010,N,01348.720,E,1,08,1,,,,,,*74
00:01:18.229;A;$IIMWD,315.0,T,312.0,M,20.7,N,10.7,M*40
00:01:18.316;A;$IIVTG,002.0,T,359.0,M,0.1,N,0.2,K*57
00:01:18.400;A;$IIRSA,0,A,,V*67
00:01:18.439;A;$IIBWC,115852,,,,,,T,,M,,N,*0B
00:01:18.511;A;$IIDBT,4.4,f,1.34,M,0.73,F*13
00:01:18.575;A;$IIGLL,4310.010,N,01348.720,E,115852,A,A*56
00:01:18.670;A;$IIHDG,157.5,,,3,E*39
00:01:18.720;A;$IIHDM,157.5,M*24
00:01:18.763;A;$IIHDT,160.5,T*20
00:01:18.803;A;$GPGSV,2,1,08,15,21,186,29,04,20,090,28,25,36,267,32,17,15,040,31*70
00:01:19.024;I;$POSMGYR,-776,157,-118*5C
00:01:19.024;I;$POSMACC,332,80,17556*66
00:01:18.951;A;$GPGSV,2,2,08,12,72,309,36,02,17,123,30,29,05,205,24,24,76,111,16*71
00:01:19.097;A;$GPZDA,115853.00,29,06,2013,00,00*60
00:01:19.380;A;$GPGGA,115853,4310.0201,N,01348.7289,E,1,07,1.00,-13.22,M,43.889,M,,*51
00:01:19.384;A;$GPRMC,115853,A,4310.0201,N,01348.7289,E,0.0000,0.000,290613,,*26
00:01:19.473;A;$GPGSA,A,3,04,15,17,12,24,02,25,,,,,,2.1,1.0,1.8*3F
00:01:19.586;A;$IIRMC,115853,A,4310.010,N,01348.720,E,0.1,002.0,290613,3,E,A*1A
00:01:19.725;A;$IIRSA,0,A,,V*67
00:01:19.766;A;$IIMWV,153.0,R,19.7,N,A*05
00:01:19.826;A;$IIMWV,153.0,T,19.7,N,A*03
00:01:19.887;A;$IIVHW,160.5,T,157.5,M,0.00,N,0.00,K*51
00:01:20.114;A;$IIVPW,0.00,N,0.00,M*52
00:01:20.115;I;$POSMGYR,-753,130,-97*6C
00:01:20.115;I;$POSMACC,372,92,17680*69
00:01:20.124;A;$IIVWR,153.0,R,19.7,N,10.2,M,36.5,K*72
00:01:20.128;A;$IIVWT,152.5,R,19.7,N,10.2,M,36.5,K*70
00:01:20.197;A;$IIRSA,0,A,,V*67
00:01:20.237;A;$IIBWC,115854,,,,,,T,,M,,N,*0D
00:01:20.305;A;$IIDBT,4.3,f,1.31,M,0.71,F*13
00:01:20.371;A;$GPGSV,2,1,08,15,21,186,29,04,20,090,28,25,36,267,32,17,15,040,32*73
00:01:20.520;A;$GPGSV,2,2,08,12,72,309,36,02,17,123,30,29,05,205,24,24,76,111,16*71
00:01:20.671;A;$GPZDA,115854.00,29,06,2013,00,00*67
00:01:20.747;A;$GPGGA,115854,4310.0201,N,01348.7289,E,1,07,1.00,-13.22,M,43.889,M,,*56
00:01:20.902;A;$GPRMC,115854,A,4310.0201,N,01348.7289,E,0.0000,0.000,290613,,*21
00:01:21.116;I;$POSMGYR,-757,159,-89*68
00:01:21.116;I;$POSMACC,376,84,17660*64
00:01:21.043;A;$GPGSA,A,3,04,15,17,12,24,02,25,,,,,,2.1,1.0,1.8*3F
00:01:21.154;A;$IIGLL,4310.010,N,01348.720,E,115854,A,A*50
00:01:21.249;A;$IIHDG,158.5,,,3,E*36
00:01:21.301;A;$IIHDM,158.5,M*2B
00:01:21.345;A;$IIHDT,161.5,T*21
00:01:21.383;A;$IIRMC,115854,A,4310.010,N,01348.720,E,0.1,002.0,290613,3,E,A*1D
00:01:21.522;A;$IIRSA,0,A,,V*67
00:01:21.561;A;$IIMWV,152.5,R,20.3,N,A*0F
00:01:21.620;A;$IIMWV,152.5,T,20.3,N,A*09
00:01:21.681;A;$IIVHW,162.0,T,159.0,M,0.00,N,0.00,K*5D
00:01:21.770;A;$IIVPW,0.00,N,0.00,M*52
00:01:21.823;A;$IIVWR,151.5,R,19.7,N,10.2,M,36.5,K*75
00:01:21.908;A;$IIVWT,151.5,R,19.7,N,10.2,M,36.5,K*73
00:01:22.117;I;$POSMGYR,-774,158,-115*5C
00:01:22.117;I;$POSMACC,336,44,17632*6B
00:01:21.994;A;$GPGSV,2,1,08,15,21,186,29,04,20,090,28,25,36,267,32,17,15,040,31*70
00:01:22.142;A;$GPGSV,2,2,08,12,72,309,36,02,17,123,30,29,05,205,24,24,76,111,16*71
00:01:22.288;A;$GPZDA,115855.00,29,06,2013,00,00*66
00:01:22.370;A;$GPGGA,115855,4310.0201,N,01348.7289,E,1,07,1.00,-13.22,M,43.889,M,,*57
00:01:22.523;A;$GPRMC,115855,A,4310.0201,N,01348.7289,E,0.0000,0.000,290613,,*20
00:01:22.664;A;$GPGSA,A,3,04,15,17,12,24,02,25,,,,,,2.1,1.0,1.8*3F
00:01:22.778;A;$IIRSA,0,A,,V*67
00:01:22.819;A;$IIRSA,0,A,,V*67
00:01:22.856;A;$IIBWC,115856,,,,,,T,,M,,N,*0F
00:01:22.923;A;$IIDBT,4.3,f,1.31,M,0.71,F*13
00:01:22.991;A;$IIGLL,4310.010,N,01348.720,E,115856,A,A*52
00:01:23.119;I;$POSMGYR,-733,172,-94*6F
00:01:23.119;I;$POSMACC,416,76,17536*68
00:01:23.086;A;$IIHDG,158.5,,,3,E*36
00:01:23.137;A;$GPGSV,2,1,08,15,21,186,29,04,20,090,28,25,36,267,32,17,15,040,31*70
00:01:23.283;A;$GPGSV,2,2,08,12,72,309,36,02,17,123,31,29,05,205,24,24,76,111,16*70
00:01:23.431;A;$GPZDA,115856.00,29,06,2013,00,00*65
00:01:23.514;A;$GPGGA,115856,4310.0201,N,01348.7289,E,1,07,1.00,-13.22,M,43.889,M,,*54
00:01:23.666;A;$GPRMC,115856,A,4310.0201,N,01348.7289,E,0.0000,0.000,290613,,*23
00:01:23.808;A;$GPGSA,A,3,04,15,17,12,24,02,25,,,,,,2.1,1.0,1.8*3F
00:01:23.918;A;$IIHDM,158.5,M*2B
00:01:23.961;A;$IIHDT,161.5,T*21
00:01:24.120;I;$POSMGYR,-791,128,-122*54
00:01:24.120;I;$POSMACC,372,32,17492*62
00:01:24.002;A;$IIRMC,115856,A,4310.010,N,01348.720,E,0.1,003.0,290613,3,E,A*1E
00:01:24.142;A;$IIRSA,0,A,,V*67
00:01:24.185;A;$IIMWV,152.5,R,18.9,N,A*0E
00:01:24.241;A;$IIMWV,152.5,T,18.9,N,A*08
00:01:24.301;A;$IIVHW,161.5,T,158.5,M,0.00,N,0.00,K*5F
00:01:24.389;A;$IIVPW,0.00,N,0.00,M*52
00:01:24.444;A;$IIVWR,151.0,R,19.1,N,9.8,M,35.4,K*46
00:01:24.526;A;$IIVWT,151.0,R,19.1,N,9.8,M,35.4,K*40
00:01:24.611;A;$IIRSA,0,A,,V*67
00:01:24.648;A;$GPGSV,2,1,08,15,21,186,29,04,20,090,28,25,36,267,32,17,15,040,31*70
00:01:24.797;A;$GPGSV,2,2,08,12,72,309,36,02,17,123,31,29,05,205,24,24,76,111,16*70
00:01:24.942;A;$GPZDA,115857.00,29,06,2013,00,00*64
00:01:25.122;I;$POSMGYR,-791,127,-112*58
00:01:25.122;I;$POSMACC,428,64,17444*62
00:01:25.027;A;$GPGGA,115857,4310.0201,N,01348.7289,E,1,07,1.00,-13.22,M,43.889,M,,*55
00:01:25.178;A;$GPRMC,115857,A,4310.0201,N,01348.7289,E,0.0000,0.000,290613,,*22
00:01:25.319;A;$GPGSA,A,3,04,15,17,12,24,02,25,,,,,,2.1,1.0,1.8*3F
00:01:25.433;A;$IIGGA,115857,4310.010,N,01348.720,E,1,08,1,,,,,,*71
00:01:25.545;A;$IIMWD,312.0,T,309.0,M,19.1,N,9.8,M*76
00:01:25.633;A;$IIVTG,003.0,T,000.0,M,0.1,N,0.2,K*59
00:01:25.855;A;$IIRSA,0,A,,V*67
00:01:25.859;A;$IIBWC,115858,,,,,,T,,M,,N,*01
00:01:25.862;A;$IIDBT,4.4,f,1.34,M,0.73,F*13
00:01:25.890;A;$GPGSV,2,1,08,15,21,186,29,04,20,090,28,25,36,267,32,17,15,040,31*70
00:01:26.123;I;$POSMGYR,-757,152,-119*5B
00:01:26.123;I;$POSMACC,388,64,17500*6E
00:01:26.035;A;$GPGSV,2,2,08,12,72,309,36,02,17,123,31,29,05,205,24,24,76,111,16*70
00:01:26.183;A;$GPZDA,115858.00,29,06,2013,00,00*6B
00:01:26.263;A;$GPGGA,115858,4310.0201,N,01348.7289,E,1,07,1.00,-13.22,M,43.889,M,,*5A
00:01:26.422;A;$GPRMC,115858,A,4310.0201,N,01348.7289,E,0.0000,0.000,290613,,*2D
00:01:26.559;A;$GPGSA,A,3,04,15,17,12,24,02,25,,,,,,2.1,1.0,1.8*3F
00:01:26.672;A;$IIGLL,4310.010,N,01348.720,E,115858,A,A*5C
00:01:26.767;A;$IIHDG,157.5,,,3,E*39
00:01:26.816;A;$IIHDM,158.5,M*2B
00:01:26.859;A;$IIHDT,161.5,T*21
00:01:26.900;A;$IIRMC,115858,A,4310.010,N,01348.720,E,0.1,003.0,290613,3,E,A*10
00:01:27.040;A;$IIRSA,0,A,,V*67
00:01:27.126;I;$POSMGYR,-759,162,-90*66
00:01:27.126;I;$POSMACC,388,-8,17592*72
00:01:27.079;A;$IIMWV,152.5,R,18.7,N,A*00
00:01:27.142;A;$IIMWV,153.5,T,18.2,N,A*02
00:01:27.199;A;$IIVHW,161.5,T,158.5,M,0.00,N,0.00,K*5F
00:01:27.286;A;$IIVPW,0.00,N,0.00,M*52
00:01:27.340;A;$IIVWR,153.5,R,18.2,N,9.4,M,33.7,K*4A
00:01:27.425;A;$IIVWT,153.5,R,18.2,N,9.4,M,33.7,K*4C
00:01:27.506;A;$IIRSA,0,A,,V*67
00:01:27.547;A;$GPGSV,2,1,08,15,21,186,29,04,20,090,28,25,36,267,32,17,15,040,31*70
00:01:27.693;A;$GPGSV,2,2,08,12,72,309,36,02,17,123,31,29,05,205,24,24,76,111,16*70
00:01:27.844;A;$GPZDA,115859.00,29,06,2013,00,00*6A
00:01:27.922;A;$GPGGA,115859,4310.0201,N,01348.7289,E,1,07,1.00,-13.22,M,43.889,M,,*5B
00:01:28.128;I;$POSMGYR,-775,155,-83*6E
00:01:28.128;I;$POSMACC,296,72,17588*67
00:01:28.075;A;$GPRMC,115859,A,4310.0201,N,01348.7289,E,0.0000,0.000,290613,,*2C
00:01:28.217;A;$GPGSA,A,3,04,15,17,12,24,02,25,,,,,,2.1,1.0,1.8*3F
00:01:28.330;A;$IIRSA,0,A,,V*67
00:01:28.368;A;$IIBWC,115900,,,,,,T,,M,,N,*0D
00:01:28.437;A;$IIDBT,4.4,f,1.34,M,0.73,F*13
00:01:28.507;A;$GPGSV,2,1,08,15,21,186,29,04,20,090,28,25,36,267,32,17,15,040,31*70
00:01:28.652;A;$GPGSV,2,2,08,12,72,309,36,02,17,123,31,29,05,205,24,24,76,111,16*70
00:01:28.799;A;$GPZDA,115900.00,29,06,2013,00,00*67
00:01:28.881;A;$GPGGA,115900,4310.0201,N,01348.7289,E,1,07,1.00,-13.22,M,43.889,M,,*56
00:01:29.129;I;$POSMGYR,-795,139,-105*55
00:01:29.129;I;$POSMACC,292,28,17572*69
00:01:29.033;A;$GPRMC,115900,A,4310.0201,N,01348.7289,E,0.0000,0.000,290613,,*21
00:01:29.176;A;$GPGSA,A,3,04,15,17,12,24,02,25,,,,,,2.1,1.0,1.8*3F
00:01:29.290;A;$IIGLL,4310.010,N,01348.720,E,115900,A,A*50
00:01:29.381;A;$IIHDG,158.5,,,3,E*36
00:01:29.434;A;$IIHDM,158.5,M*2B
00:01:29.474;A;$IIHDT,161.5,T*21
00:01:29.517;A;$IIRMC,115900,A,4310.010,N,01348.720,E,0.1,003.0,290613,3,E,A*1C
00:01:29.656;A;$IIRSA,0,A,,V*67
00:01:29.694;A;$IIMWV,153.0,R,18.4,N,A*07
00:01:29.754;A;$IIMWV,153.0,T,18.4,N,A*01
00:01:29.815;A;$IIVHW,161.5,T,158.5,M,0.00,N,0.00,K*5F
00:01:29.902;A;$IIVPW,0.00,N,0.00,M*52
00:01:29.957;A;$IIVWR,153.0,R,18.4,N,9.5,M,34.1,K*49
00:01:30.042;A;$IIVWT,153.0,R,18.4,N,9.5,M,34.1,K*4F
00:01:30.131;I;$POSMGYR,-753,173,-108*5C
00:01:30.131;I;$POSMACC,456,80,17520*62
00:01:30.122;A;$IIRSA,0,A,,V*67
00:01:30.163;A;$GPGSV,2,1,08,15,21,186,29,04,20,090,28,25,36,267,32,17,15,040,31*70
00:01:30.309;A;$GPGSV,2,2,08,12,72,309,36,02,17,123,31,29,05,205,24,24,76,111,16*70
00:01:30.457;A;$GPZDA,115901.00,29,06,2013,00,00*66
00:01:30.536;A;$GPGGA,115901,4310.0201,N,01348.7289,E,1,07,1.00,-13.22,M,43.889,M,,*57
00:01:30.902;A;$GPRMC,115901,A,4310.0201,N,01348.7289,E,0.0000,0.000,290613,,*20
00:01:30.906;A;$GPGSA,A,3,04,15,17,12,24,02,25,,,,,,2.1,1.0,1.8*3F
00:01:30.945;A;$IIRSA,0,A,,V*67
00:01:30.983;A;$IIGSA,,,,,,,,,,,,,,,,1,*48
00:01:31.045;A;$IIMTW,17.0,C*15
00:01:31.132;I;$POSMGYR,-775,163,-80*68
00:01:31.132;I;$POSMACC,420,64,17512*68
00:01:31.086;A;$IIZDA,115902,29,06,2013,,*5C
00:01:31.153;A;$IIHVM,3,E*25
00:01:31.185;A;$GPGSV,2,1,08,15,21,186,29,04,20,090,28,25,36,267,32,17,15,040,31*70
00:01:31.474;A;$GPGSV,2,2,08,12,72,309,36,02,17,123,31,29,05,205,24,24,76,111,16*70
00:01:31.481;A;$GPZDA,115902.00,29,06,2013,00,00*65
00:01:31.563;A;$GPGGA,115902,4310.0201,N,01348.7289,E,1,07,1.00,-13.22,M,43.889,M,,*54
00:01:31.715;A;$GPRMC,115902,A,4310.0201,N,01348.7289,E,0.0000,0.000,290613,,*23
00:01:31.856;A;$GPGSA,A,3,04,15,17,12,24,02,25,,,,,,2.1,1.0,1.8*3F
00:01:31.970;A;$IIGGA,115902,4310.010,N,01348.720,E,1,08,1,,,,,,*70
00:01:32.133;I;$POSMGYR,-788,133,-104*52
00:01:32.133;I;$POSMACC,424,52,17608*61
00:01:32.083;A;$IIMWD,314.0,T,311.0,M,18.2,N,9.4,M*77
00:01:32.169;A;$IIVTG,004.0,T,001.0,M,0.0,N,0.0,K*5C
00:01:32.251;A;$IIRSA,0,A,,V*67
00:01:32.292;A;$IIBWC,115902,,,,,,T,,M,,N,*0F
00:01:32.360;A;$IIDBT,4.4,f,1.34,M,0.73,F*13
00:01:32.425;A;$IIGLL,4310.010,N,01348.720,E,115902,A,A*52
00:01:32.521;A;$IIHDG,158.5,,,3,E*36
00:01:32.572;A;$IIHDM,158.5,M*2B
00:01:32.612;A;$IIHDT,161.5,T*21
00:01:32.655;A;$GPGSV,2,1,08,15,21,186,29,04,20,090,28,25,36,267,32,17,15,040,31*70
00:01:32.802;A;$GPGSV,2,2,08,12,72,309,36,02,17,123,31,29,05,205,24,24,76,111,16*70
00:01:32.953;A;$GPZDA,115903.00,29,06,2013,00,00*64
00:01:33.136;I;$POSMGYR,-740,132,-113*51
00:01:33.136;I;$POSMACC,336,176,17528*53
00:01:33.031;A;$GPGGA,115903,4310.0201,N,01348.7289,E,1,07,1.00,-13.22,M,43.889,M,,*55
00:01:33.184;A;$GPRMC,115903,A,4310.0201,N,01348.7289,E,0.0000,0.000,290613,,*22
00:01:33.325;A;$GPGSA,A,3,04,15,17,12,24,02,25,,,,,,2.1,1.0,1.8*3F
00:01:33.437;A;$IIRMC,115903,A,4310.010,N,01348.720,E,0.0,004.0,290613,3,E,A*19
00:01:33.581;A;$IIRSA,0,A,,V*67
00:01:33.617;A;$IIMWV,149.5,R,17.9,N,A*0B
00:01:33.677;A;$IIMWV,149.5,T,17.9,N,A*0D
00:01:33.737;A;$IIVHW,161.0,T,158.0,M,0.00,N,0.00,K*5F
00:01:33.825;A;$IIVPW,0.00,N,0.00,M*52
00:01:33.878;A;$IIVWR,154.5,R,17.9,N,9.2,M,33.1,K*49
00:01:33.962;A;$IIVWT,154.5,R,17.9,N,9.2,M,33.1,K*4F
00:01:34.045;A;$IIRSA,0,A,,V*67
00:01:34.138;I;$POSMGYR,-792,127,-95*65
00:01:34.138;I;$POSMACC,488,124,17576*5D
00:01:34.083;A;$IIBWC,115904,,,,,,T,,M,,N,*09
00:01:34.152;A;$IIDBT,4.5,f,1.37,M,0.75,F*17
00:01:34.222;A;$GPGSV,2,1,08,15,21,186,29,04,20,090,28,25,36,267,32,17,15,040,31*70
00:01:34.365;A;$GPGSV,2,2,08,12,72,309,36,02,17,123,31,29,05,205,24,24,76,111,16*70
00:01:34.514;A;$GPZDA,115904.00,29,06,2013,00,00*63
00:01:34.596;A;$GPGGA,115904,4310.0201,N,01348.7289,E,1,07,1.00,-13.22,M,43.889,M,,*52
00:01:34.748;A;$GPRMC,115904,A,4310.0201,N,01348.7289,E,0.0000,0.000,290613,,*25
00:01:34.889;A;$GPGSA,A,3,04,15,17,12,24,02,25,,,,,,2.1,1.0,1.8*3F
00:01:35.002;A;$IIGLL,4310.010,N,01348.720,E,115904,A,A*54
00:01:35.140;I;$POSMGYR,-796,151,-101*5C
00:01:35.140;I;$POSMACC,500,24,17588*6C
00:01:35.100;A;$IIHDG,158.5,,,3,E*36
00:01:35.153;A;$IIHDM,158.5,M*2B
00:01:35.188;A;$IIHDT,161.5,T*21
00:01:35.232;A;$IIRMC,115904,A,4310.010,N,01348.720,E,0.0,004.0,290613,3,E,A*1E
00:01:35.371;A;$IIRSA,0,A,,V*67
00:01:35.409;A;$IIMWV,155.0,R,18.9,N,A*0C
00:01:35.469;A;$IIMWV,155.0,T,18.9,N,A*0A
00:01:35.529;A;$IIVHW,161.0,T,158.0,M,0.00,N,0.00,K*5F
00:01:35.616;A;$IIVPW,0.00,N,0.00,M*52
00:01:35.674;A;$IIVWR,155.0,R,18.9,N,9.7,M,35.0,K*40
00:01:35.755;A;$IIVWT,155.0,R,18.9,N,9.7,M,35.0,K*46
00:01:35.837;A;$GPGSV,2,1,08,15,21,186,28,04,20,090,28,25,36,267,32,17,15,040,31*71
00:01:35.985;A;$GPGSV,2,2,08,12,72,309,36,02,17,123,31,29,05,205,24,24,76,111,15*73
00:01:36.142;I;$POSMGYR,-773,144,-96*6C
00:01:36.142;I;$POSMACC,364,140,17512*58
00:01:36.133;A;$GPZDA,115905.00,29,06,2013,00,00*62
00:01:36.214;A;$GPGGA,115905,4310.0201,N,01348.7289,E,1,07,1.00,-13.22,M,43.889,M,,*53
00:01:36.368;A;$GPRMC,115905,A,4310.0201,N,01348.7289,E,0.0000,0.000,290613,,*24
00:01:36.507;A;$GPGSA,A,3,04,15,17,12,24,02,25,,,,,,2.1,1.0,1.8*3F
00:01:36.621;A;$IIRSA,0,A,,V*67
00:01:36.659;A;$IIRSA,0,A,,V*67
00:01:36.700;A;$IIBWC,115906,,,,,,T,,M,,N,*0B
00:01:36.769;A;$IIDBT,4.5,f,1.37,M,0.75,F*17
00:01:36.833;A;$IIGLL,4310.010,N,01348.720,E,115906,A,A*56
00:01:36.928;A;$GPGSV,2,1,08,15,21,186,29,04,20,090,28,25,36,267,32,17,15,040,31*70
00:01:37.144;I;$POSMGYR,-769,135,-86*60
00:01:37.144;I;$POSMACC,376,112,17700*5D
00:01:37.077;A;$GPGSV,2,2,08,12,72,309,36,02,17,123,31,29,05,205,24,24,76,111,15*73
00:01:37.298;A;$GPZDA,115906.00,29,06,2013,00,00*61
00:01:37.306;A;$GPGGA,115906,4310.0201,N,01348.7289,E,1,07,1.00,-13.22,M,43.889,M,,*50
00:01:37.459;A;$GPRMC,115906,A,4310.0201,N,01348.7289,E,0.0000,0.000,290613,,*27
00:01:37.600;A;$GPGSA,A,3,04,15,17,12,24,02,25,,,,,,2.1,1.0,1.8*3F
00:01:37.714;A;$IIHDG,158.0,,,3,E*33
00:01:37.763;A;$IIHDM,158.0,M*2E
00:01:37.803;A;$IIHDT,161.0,T*24
00:01:37.850;A;$IIRMC,115906,A,4310.010,N,01348.720,E,0.0,004.0,290613,3,E,A*1C
00:01:37.984;A;$IIRSA,0,A,,V*67
00:01:38.025;A;$IIMWV,148.0,R,17.9,N,A*0F
00:01:38.085;A;$IIMWV,148.0,T,17.9,N,A*09
00:01:38.146;I;$POSMGYR,-748,140,-96*60
00:01:38.146;I;$POSMACC,432,104,17444*5E
00:01:38.146;A;$IIVHW,161.0,T,158.0,M,0.00,N,0.00,K*5F
00:01:38.233;A;$IIVPW,0.00,N,0.00,M*52
00:01:38.286;A;$IIVWR,148.0,R,17.9,N,9.2,M,33.1,K*41
00:01:38.368;A;$IIVWT,148.0,R,17.9,N,9.2,M,33.1,K*47
00:01:38.453;A;$IIRSA,0,A,,V*67
00:01:38.495;A;$GPGSV,2,1,08,15,21,186,29,04,20,090,28,25,36,267,32,17,15,040,31*70
00:01:38.638;A;$GPGSV,2,2,08,12,72,309,36,02,17,123,31,29,05,205,24,24,76,111,15*73
00:01:38.787;A;$GPZDA,115907.00,29,06,2013,00,00*60
00:01:38.869;A;$GPGGA,115907,4310.0201,N,01348.7289,E,1,07,1.00,-13.22,M,43.889,M,,*51
00:01:39.148;I;$POSMGYR,-759,143,-109*54
00:01:39.148;I;$POSMACC,432,96,17648*6A
00:01:39.021;A;$GPRMC,115907,A,4310.0201,N,01348.7289,E,0.0000,0.000,290613,,*26
00:01:39.163;A;$GPGSA,A,3,04,15,17,12,24,02,25,,,,,,2.1,1.0,1.8*3F
00:01:39.279;A;$IIGGA,115907,4310.010,N,01348.720,E,1,08,1,,,,,,*75
00:01:39.388;A;$IIMWD,313.0,T,310.0,M,17.9,N,9.2,M*73
00:01:39.475;A;$IIVTG,004.0,T,001.0,M,0.0,N,0.0,K*5C
00:01:39.557;A;$IIRSA,0,A,,V*67
00:01:39.598;A;$IIBWC,115908,,,,,,T,,M,,N,*05
00:01:39.666;A;$IIDBT,4.5,f,1.37,M,0.75,F*17
00:01:39.731;A;$IIGLL,4310.010,N,01348.720,E,115908,A,A*58
00:01:39.826;A;$IIHDG,158.5,,,3,E*36
00:01:39.878;A;$IIHDM,158.5,M*2B
00:01:39.918;A;$GPGSV,2,1,08,15,21,186,29,04,20,090,28,25,36,267,32,17,15,040,31*70
00:01:40.151;I;$POSMGYR,-781,134,-100*58
00:01:40.151;I;$POSMACC,332,56,17368*66
00:01:40.069;A;$GPGSV,2,2,08,12,72,309,36,02,17,123,31,29,05,205,24,24,76,111,15*73
00:01:40.213;A;$GPZDA,115908.00,29,06,2013,00,00*6F
00:01:40.295;A;$GPGGA,115908,4310.0201,N,01348.7289,E,1,07,1.00,-13.22,M,43.889,M,,*5E
00:01:40.448;A;$GPRMC,115908,A,4310.0201,N,01348.7289,E,0.0000,0.000,290613,,*29
00:01:40.589;A;$GPGSA,A,3,04,15,17,12,24,02,25,,,,,,2.1,1.0,1.8*3F
00:01:40.705;A;$IIHDT,161.0,T*24
00:01:40.744;A;$IIRMC,115908,A,4310.010,N,01348.720,E,0.0,004.0,290613,3,E,A*12
00:01:40.883;A;$IIRSA,0,A,,V*67
00:01:40.921;A;$IIMWV,153.5,R,20.9,N,A*04
00:01:40.981;A;$IIMWV,153.5,T,20.9,N,A*02
00:01:41.042;A;$IIVHW,161.0,T,158.0,M,0.00,N,0.00,K*5F
00:01:41.152;I;$POSMGYR,-782,105,-115*5D
00:01:41.152;I;$POSMACC,348,12,17468*6C
00:01:41.131;A;$IIVPW,0.00,N,0.00,M*52
00:01:41.185;A;$IIVWR,153.5,R,20.9,N,10.8,M,38.7,K*75
00:01:41.269;A;$IIVWT,153.5,R,20.9,N,10.8,M,38.7,K*73
00:01:41.356;A;$IIRSA,0,A,,V*67
00:01:41.394;A;$GPGSV,2,1,08,15,21,186,29,04,20,090,28,25,36,267,32,17,15,040,31*70
00:01:41.540;A;$GPGSV,2,2,08,12,72,309,36,02,17,123,31,29,05,205,24,24,76,111,14*72
00:01:41.689;A;$GPZDA,115909.00,29,06,2013,00,00*6E
00:01:41.771;A;$GPGGA,115909,4310.0201,N,01348.7289,E,1,07,1.00,-13.22,M,43.889,M,,*5F
00:01:41.923;A;$GPRMC,115909,A,4310.0201,N,01348.7289,E,0.0000,0.000,290613,,*28
00:01:42.153;I;$POSMGYR,-791,132,-77*6E
00:01:42.153;I;$POSMACC,456,128,17552*54
00:01:42.065;A;$GPGSA,A,3,04,15,17,12,24,02,25,,,,,,2.1,1.0,1.8*3F
00:01:42.365;A;$IIRSA,0,A,,V*67
00:01:42.368;A;$IIBWC,115910,,,,,,T,,M,,N,*0C
00:01:42.372;A;$IIDBT,4.5,f,1.37,M,0.75,F*17
00:01:42.375;A;$IIGLL,4310.010,N,01348.720,E,115910,A,A*51
00:01:42.447;A;$GPGSV,2,1,08,15,21,186,29,04,20,090,28,25,36,267,32,17,15,040,32*73
00:01:42.595;A;$GPGSV,2,2,08,12,72,309,36,02,17,123,31,29,05,205,24,24,76,111,14*72
00:01:42.743;A;$GPZDA,115910.00,29,06,2013,00,00*66
00:01:42.822;A;$GPGGA,115910,4310.0201,N,01348.7289,E,1,07,1.00,-13.22,M,43.889,M,,*57
00:01:43.118;A;$GPRMC,115910,A,4310.0201,N,01348.7289,E,0.0000,0.000,290613,,*20
00:01:43.155;I;$POSMGYR,-778,170,-127*5B
00:01:43.155;I;$POSMACC,520,64,17428*61
00:01:43.122;A;$GPGSA,A,3,04,15,17,12,24,02,25,,,,,,2.1,1.0,1.8*3F
00:01:43.229;A;$IIHDG,159.0,,,3,E*32
00:01:43.280;A;$IIHDM,159.0,M*2F
00:01:43.321;A;$IIHDT,161.0,T*24
00:01:43.364;A;$IIRMC,115910,A,4310.010,N,01348.720,E,0.0,005.0,290613,3,E,A*1A
00:01:43.503;A;$IIRSA,0,A,,V*67
00:01:43.544;A;$IIMWV,149.0,R,19.5,N,A*0C
00:01:43.601;A;$IIMWV,149.0,T,19.5,N,A*0A
00:01:43.661;A;$IIVHW,161.0,T,158.0,M,0.00,N,0.00,K*5F
00:01:43.750;A;$IIVPW,0.00,N,0.00,M*52
00:01:43.803;A;$IIVWR,149.0,R,19.5,N,10.1,M,36.1,K*7C
00:01:43.888;A;$IIVWT,149.0,R,19.5,N,10.1,M,36.1,K*7A
00:01:43.974;A;$GPGSV,2,1,07,15,21,186,29,04,20,090,28,25,36,267,32,17,15,040,32*7C
00:01:44.156;I;$POSMGYR,-721,135,-96*6D
00:01:44.156;I;$POSMACC,396,124,17856*5A
00:01:44.121;A;$GPGSV,2,2,07,12,72,309,36,02,17,123,31,29,05,205,23*49
00:01:44.246;A;$IIRSA,0,A,,V*67
00:01:44.280;A;$GPZDA,115911.00,29,06,2013,00,00*67
00:01:44.363;A;$GPGGA,115911,4310.0201,N,01348.7289,E,1,06,1.20,-13.22,M,43.889,M,,*55
00:01:44.517;A;$GPRMC,115911,A,4310.0201,N,01348.7289,E,0.0000,0.000,290613,,*21
00:01:44.656;A;$GPGSA,A,3,04,15,17,12,02,25,,,,,,,2.1,1.2,1.8*3B
00:01:44.765;A;$IIRSA,0,A,,V*67
00:01:44.806;A;$IIGSA,,,,,,,,,,,,,,,,1,*48
00:01:44.868;A;$IIMTW,17.0,C*15
00:01:44.906;A;$IIZDA,115912,29,06,2013,,*5D
00:01:44.973;A;$IIHVM,3,E*25
00:01:45.011;A;$GPGSV,2,1,08,15,21,186,29,04,20,090,28,25,36,267,32,17,15,040,32*73
00:01:45.159;I;$POSMGYR,-721,144,-78*6B
00:01:45.159;I;$POSMACC,488,64,17724*6D
00:01:45.154;A;$GPGSV,2,2,08,12,72,309,36,02,17,123,31,29,05,205,23,14,24,313,13*76
00:01:45.300;A;$GPZDA,115912.00,29,06,2013,00,00*64
00:01:45.382;A;$GPGGA,115912,4310.0201,N,01348.7289,E,1,06,1.20,-13.22,M,43.889,M,,*56
00:01:45.535;A;$GPRMC,115912,A,4310.0201,N,01348.7289,E,0.0000,0.000,290613,,*22
00:01:45.676;A;$GPGSA,A,3,04,15,17,12,02,25,,,,,,,2.6,1.2,2.3*34
00:01:45.788;A;$IIGGA,115912,4310.010,N,01348.720,E,1,08,1,,,,,,*71
00:01:45.899;A;$IIMWD,306.0,T,303.0,M,17.3,N,8.9,M*75
00:01:45.986;A;$IIVTG,005.0,T,002.0,M,0.0,N,0.0,K*5E
00:01:46.067;A;$IIRSA,0,A,,V*67
00:01:46.159;I;$POSMGYR,-772,138,-101*59
00:01:46.159;I;$POSMACC,460,120,17784*50
00:01:46.106;A;$IIBWC,115912,,,,,,T,,M,,N,*0E
00:01:46.175;A;$IIDBT,4.5,f,1.37,M,0.75,F*17
00:01:46.243;A;$IIGLL,4310.010,N,01348.720,E,115912,A,A*53
00:01:46.338;A;$IIHDG,158.5,,,3,E*36
00:01:46.390;A;$IIHDM,158.5,M*2B
00:01:46.430;A;$IIHDT,161.5,T*21
00:01:46.471;A;$GPGSV,2,1,08,15,21,186,29,04,20,090,28,25,36,267,32,17,15,040,32*73
00:01:46.618;A;$GPGSV,2,2,08,12,72,309,36,02,17,123,31,29,05,205,23,14,24,313,11*74
00:01:46.765;A;$GPZDA,115913.00,29,06,2013,00,00*65
00:01:46.847;A;$GPGGA,115913,4310.0201,N,01348.7289,E,1,06,1.20,-13.22,M,43.889,M,,*57
00:01:46.999;A;$GPRMC,115913,A,4310.0201,N,01348.7289,E,0.0000,0.000,290613,,*23
00:01:47.161;I;$POSMGYR,-772,137,-92*6D
00:01:47.161;I;$POSMACC,380,48,17592*63
00:01:47.141;A;$GPGSA,A,3,04,15,17,12,02,25,,,,,,,2.6,1.2,2.3*34
00:01:47.250;A;$IIRMC,115913,A,4310.010,N,01348.720,E,0.0,005.0,290613,3,E,A*19
00:01:47.389;A;$IIRSA,0,A,,V*67
00:01:47.427;A;$IIMWV,146.5,R,18.9,N,A*0B
00:01:47.488;A;$IIMWV,146.5,T,18.9,N,A*0D
00:01:47.548;A;$IIVHW,162.0,T,159.0,M,0.00,N,0.00,K*5D
00:01:47.635;A;$IIVPW,0.00,N,0.00,M*52
00:01:47.691;A;$IIVWR,146.5,R,18.9,N,9.7,M,35.0,K*47
00:01:47.773;A;$GPALM,1,1,19,0722,00,4d20,0f,0d8d,fffffd48,a10d48,0d63c8,ff83e35b,fff1ab6e,ffff
00:01:47.939;A;fe6c,ffffffff*2F
00:01:47.979;A;$GPALM,1,1,19,0722,00,4d2d,24,0d90,fffffd4e,a10d4a,0d6a2c,ff83dc16,fff0cf54,ffff
00:01:48.163;I;$POSMGYR,-736,127,-87*68
00:01:48.163;I;$POSMACC,384,112,17560*54
00:01:48.143;A;fe6c,ffffffff*76
00:01:48.184;A;$GPALM,1,1,19,0722,00,4d20,0f,0d8d,fffffd48,a10d48,0d63c8,ff83e35b,fff1ab6e,ffff
00:01:48.350;A;fe6c,ffffffff*2F
00:01:48.390;A;$GPALM,1,1,19,0722,00,4d2d,24,0d90,fffffd4e,a10d4a,0d6a2c,ff83dc16,fff0cf54,ffff
00:01:48.695;A;fe6c,ffffffff*76
00:01:48.698;A;$IIVWT,146.5,R,18.9,N,9.7,M,35.0,K*41
00:01:48.701;A;$GPALM,1,1,19,0722,00,4d2d,24,0d90,fffffd4e,a10d4a,0d6a2c,ff83dc16,fff0cf54,ffff
00:01:48.844;A;fe6c,ffffffff*76
00:01:48.883;A;$GPALM,1,1,19,0722,00,4d2d,24,0d90,fffffd4f,a10d49,0d6a2c,ff83dc16,fff0cf54,ffff
00:01:49.049;A;fe6c,000*1D
00:01:49.079;A;$IIRSA,0,A,,V*67
00:01:49.165;I;$POSMGYR,-764,126,-89*60
00:01:49.165;I;$POSMACC,408,-44,17588*4E
00:01:49.119;A;$IIBWC,115914,,,,,,T,,M,,N,*08
00:01:49.193;A;$IIDBT,4.4,f,1.34,M,0.73,F*13
00:01:49.255;A;$IIGLL,4310.010,N,01348.720,E,115914,A,A*55
00:01:49.350;A;$GPGSV,2,1,07,15,21,186,29,04,20,090,28,25,36,267,32,17,15,040,32*7C
00:01:49.498;A;$GPGSV,2,2,07,12,72,309,36,02,17,123,32,29,05,205,23*4A
00:01:49.618;A;$IIHDG,159.0,,,3,E*32
00:01:49.667;A;$GPZDA,115914.00,29,06,2013,00,00*62
00:01:49.750;A;$GPGGA,115914,4310.0201,N,01348.7289,E,1,06,1.20,-13.22,M,43.889,M,,*50
00:01:49.901;A;$GPRMC,115914,A,4310.0201,N,01348.7289,E,0.0000,0.000,290613,,*24
00:01:50.047;A;$GPGSA,A,3,04,15,17,12,02,25,,,,,,,2.6,1.2,2.3*34
00:01:50.167;I;$POSMGYR,-793,127,-100*59
00:01:50.167;I;$POSMACC,400,24,17432*6D
00:01:50.151;A;$IIHDM,159.0,M*2F
00:01:50.194;A;$IIHDT,161.5,T*21
00:01:50.234;A;$IIRMC,115914,A,4310.010,N,01348.720,E,0.0,005.0,290613,3,E,A*1E
00:01:50.373;A;$IIRSA,0,A,,V*67
00:01:50.412;A;$IIMWV,148.0,R,18.9,N,A*00
00:01:50.473;A;$IIMWV,148.0,T,18.9,N,A*06
00:01:50.533;A;$IIVHW,161.5,T,158.5,M,0.00,N,0.00,K*5F
00:01:50.621;A;$IIVPW,0.00,N,0.00,M*52
00:01:50.679;A;$IIVWR,148.0,R,18.9,N,9.7,M,35.0,K*4C
00:01:50.758;A;$IIVWT,148.0,R,18.9,N,9.7,M,35.0,K*4A
00:01:50.841;A;$GPGSV,2,1,07,15,21,186,29,04,20,090,28,25,36,267,32,17,15,040,32*7C
00:01:50.989;A;$GPGSV,2,2,07,12,72,309,36,02,17,123,32,29,05,205,23*4A
00:01:51.168;I;$POSMGYR,-774,128,-86*60
00:01:51.168;I;$POSMACC,300,52,17500*6B
00:01:51.109;A;$GPZDA,115915.00,29,06,2013,00,00*63
00:01:51.192;A;$GPGGA,115915,4310.0201,N,01348.7289,E,1,06,1.20,-13.22,M,43.889,M,,*51
00:01:51.346;A;$GPRMC,115915,A,4310.0201,N,01348.7289,E,0.0000,0.000,290613,,*25
00:01:51.485;A;$GPGSA,A,3,04,15,17,12,02,25,,,,,,,2.6,1.2,2.3*34
00:01:51.594;A;$IIRSA,0,A,,V*67
00:01:51.633;A;$IIRSA,0,A,,V*67
00:01:51.673;A;$IIBWC,115916,,,,,,T,,M,,N,*0A
00:01:51.740;A;$IIDBT,4.4,f,1.34,M,0.73,F*13
00:01:51.807;A;$IIGLL,4310.010,N,01348.720,E,115916,A,A*57
00:01:51.902;A;$GPGSV,2,1,07,15,21,186,29,04,20,090,28,25,36,267,32,17,15,040,32*7C
00:01:52.051;A;$GPGSV,2,2,07,12,72,309,36,02,17,123,32,29,05,205,23*4A
00:01:52.173;I;$POSMGYR,-744,148,-80*63
00:01:52.173;I;$POSMACC,420,-56,17564*45
00:01:52.173;A;$GPZDA,115916.00,29,06,2013,00,00*60
00:01:52.250;A;$GPGGA,115916,4310.0201,N,01348.7289,E,1,06,1.20,-13.22,M,43.889,M,,*52
00:01:52.405;A;$GPRMC,115916,A,4310.0201,N,01348.7289,E,0.0000,0.000,290613,,*26
00:01:52.547;A;$GPGSA,A,3,04,15,17,12,02,25,,,,,,,2.6,1.2,2.3*34
00:01:52.656;A;$IIHDG,157.5,,,3,E*39
00:01:52.705;A;$IIHDM,157.5,M*24
00:01:52.745;A;$IIHDT,160.5,T*20
00:01:52.788;A;$IIRMC,115916,A,4310.010,N,01348.720,E,0.0,005.0,290613,3,E,A*1C
00:01:52.930;A;$IIRSA,0,A,,V*67
00:01:52.966;A;$IIMWV,146.0,R,19.5,N,A*03
00:01:53.027;A;$IIMWV,146.0,T,19.5,N,A*05
00:01:53.087;A;$IIVHW,160.5,T,157.5,M,0.00,N,0.00,K*51
00:01:53.175;I;$POSMGYR,-758,168,-97*6A
00:01:53.175;I;$POSMACC,408,204,17604*52
00:01:53.173;A;$IIVPW,0.00,N,0.00,M*52
00:01:53.227;A;$IIVWR,146.0,R,19.5,N,10.1,M,36.1,K*73
00:01:53.313;A;$IIVWT,146.0,R,19.5,N,10.1,M,36.1,K*75
00:01:53.398;A;$IIRSA,0,A,,V*67
00:01:53.438;A;$GPGSV,2,1,07,15,21,186,29,04,20,090,29,25,36,267,31,17,15,040,32*7E
00:01:53.796;A;$GPGSV,2,2,07,12,72,309,36,02,17,123,31,29,05,205,23*49
00:01:53.799;A;$GPZDA,115917.00,29,06,2013,00,00*61
00:01:53.803;A;$GPGGA,115917,4310.0201,N,01348.7289,E,1,06,1.20,-13.22,M,43.889,M,,*53
00:01:53.940;A;$GPRMC,115917,A,4310.0201,N,01348.7289,E,0.0000,0.000,290613,,*27
00:01:54.178;I;$POSMGYR,-745,149,-125*5D
00:01:54.178;I;$POSMACC,368,176,17656*52
00:01:54.081;A;$GPGSA,A,3,04,15,17,12,02,25,,,,,,,2.6,1.2,2.3*34
00:01:54.331;A;$IIGGA,115917,4310.010,N,01348.720,E,1,08,1,,,,,,*74
00:01:54.335;A;$IIMWD,308.0,T,305.0,M,20.5,N,10.6,M*49
00:01:54.392;A;$IIVTG,005.0,T,002.0,M,0.0,N,0.0,K*5E
00:01:54.473;A;$IIRSA,0,A,,V*67
00:01:54.513;A;$IIBWC,115918,,,,,,T,,M,,N,*04
00:01:54.583;A;$IIDBT,4.4,f,1.34,M,0.73,F*13
00:01:54.650;A;$IIGLL,4310.010,N,01348.720,E,115918,A,A*59
00:01:54.745;A;$GPGSV,2,1,07,15,21,186,29,04,20,090,29,25,36,267,31,17,15,040,32*7E
00:01:54.891;A;$GPGSV,2,2,07,12,72,309,36,02,17,123,31,29,05,205,23*49
00:01:55.016;A;$GPZDA,115918.00,29,06,2013,00,00*6E
00:01:55.180;I;$POSMGYR,-767,157,-120*57
00:01:55.180;I;$POSMACC,332,28,17644*64
00:01:55.094;A;$GPGGA,115918,4310.0201,N,01348.7289,E,1,06,1.20,-13.22,M,43.889,M,,*5C
00:01:55.247;A;$GPRMC,115918,A,4310.0201,N,01348.7289,E,0.0000,0.000,290613,,*28
00:01:55.389;A;$GPGSA,A,3,04,15,17,12,02,25,,,,,,,2.6,1.2,2.3*34
00:01:55.497;A;$IIHDG,158.5,,,3,E*36
00:01:55.547;A;$IIHDM,158.5,M*2B
00:01:55.587;A;$IIHDT,161.5,T*21
00:01:55.630;A;$IIRMC,115918,A,4310.010,N,01348.720,E,0.0,005.0,290613,3,E,A*12
00:01:55.772;A;$IIRSA,0,A,,V*67
00:01:55.809;A;$IIMWV,154.5,R,18.7,N,A*06
00:01:55.869;A;$IIMWV,154.5,T,18.7,N,A*00
00:01:55.930;A;$IIVHW,161.0,T,158.0,M,0.00,N,0.00,K*5F
00:01:56.016;A;$IIVPW,0.00,N,0.00,M*52
00:01:56.070;A;$IIVWR,154.5,R,18.7,N,9.6,M,34.6,K*4C
00:01:56.183;I;$POSMGYR,-758,163,-106*58
00:01:56.183;I;$POSMACC,340,56,17576*6A
00:01:56.154;A;$IIVWT,154.5,R,18.7,N,9.6,M,34.6,K*4A
00:01:56.237;A;$IIRSA,0,A,,V*67
00:01:56.275;A;$GPGSV,2,1,07,15,21,186,29,04,20,090,29,25,36,267,32,17,15,040,32*7D
00:01:56.426;A;$GPGSV,2,2,07,12,72,309,36,02,17,123,31,29,05,205,23*49
00:01:56.544;A;$GPZDA,115919.00,29,06,2013,00,00*6F
00:01:56.624;A;$GPGGA,115919,4310.0201,N,01348.7289,E,1,06,1.20,-13.22,M,43.889,M,,*5D
00:01:56.779;A;$GPRMC,115919,A,4310.0201,N,01348.7289,E,0.0000,0.000,290613,,*29
00:01:56.920;A;$GPGSA,A,3,04,15,17,12,02,25,,,,,,,2.6,1.2,2.3*34
00:01:57.026;A;$IIRSA,0,A,,V*67
00:01:57.067;A;$IIBWC,115920,,,,,,T,,M,,N,*0F
00:01:57.185;I;$POSMGYR,-760,134,-104*53
00:01:57.185;I;$POSMACC,352,24,17620*6C
00:01:57.139;A;$IIDBT,4.4,f,1.34,M,0.73,F*13
00:01:57.201;A;$IIGLL,4310.010,N,01348.720,E,115920,A,A*52
00:01:57.297;A;$IIHDG,158.0,,,3,E*33
00:01:57.348;A;$IIHDM,158.0,M*2E
00:01:57.389;A;$GPGSV,2,1,07,15,21,186,29,04,20,090,29,25,36,267,32,17,15,040,32*7D
00:01:57.537;A;$GPGSV,2,2,07,12,72,309,36,02,17,123,31,29,05,205,23*49
00:01:57.656;A;$GPZDA,115920.00,29,06,2013,00,00*65
00:01:57.739;A;$GPGGA,115920,4310.0201,N,01348.7289,E,1,06,1.20,-13.22,M,43.889,M,,*57
00:01:57.894;A;$GPRMC,115920,A,4310.0201,N,01348.7289,E,0.0000,0.000,290613,,*23
00:01:58.033;A;$GPGSA,A,3,04,15,17,12,02,25,,,,,,,2.6,1.2,2.3*34
00:01:58.141;A;$IIHDT,161.0,T*24
00:01:58.187;I;$POSMGYR,-770,146,-110*52
00:01:58.187;I;$POSMACC,412,48,17600*67
00:01:58.182;A;$IIRMC,115920,A,4310.010,N,01348.720,E,0.0,005.0,290613,3,E,A*19
00:01:58.322;A;$IIRSA,0,A,,V*67
00:01:58.361;A;$IIMWV,148.5,R,20.0,N,A*07
00:01:58.420;A;$IIMWV,148.5,T,20.0,N,A*01
00:01:58.483;A;$IIVHW,160.5,T,157.5,M,0.00,N,0.00,K*51
00:01:58.567;A;$IIVPW,0.00,N,0.00,M*52
00:01:58.624;A;$IIVWR,148.5,R,20.0,N,10.3,M,37.0,K*75
