00:00:11.165;I;$POSMST,Start NMEA Logger,V 0.1.2*30
00:00:11.179;I;$POSMGYR,1800,7772,13164*5C
00:00:11.179;I;$POSMACC,-684,-2145,-7012*7D
00:00:11.151;I;$POSMVCC,4962*72
00:00:12.153;I;$POSMGYR,-748,-328,17952*5B
00:00:12.153;I;$POSMACC,-702,-349,345*55
00:00:12.151;I;$POSMVCC,4918*7F
00:00:13.154;I;$POSMGYR,-544,-100,17788*54
00:00:13.154;I;$POSMACC,-635,-302,10*6C
00:00:13.152;I;$POSMVCC,4918*7F
00:00:14.156;I;$POSMGYR,-600,-128,17772*58
00:00:14.156;I;$POSMACC,-613,-338,25*67
00:00:14.154;I;$POSMVCC,4962*72
00:00:15.159;I;$POSMGYR,-628,-92,17792*6C
00:00:15.159;I;$POSMACC,-622,-353,4*5B
00:00:15.157;I;$POSMVCC,4940*72
00:00:16.161;I;$POSMGYR,-768,-80,17692*6B
00:00:16.161;I;$POSMACC,-630,-370,17*6B
00:00:16.159;I;$POSMVCC,4940*72
00:00:17.162;I;$POSMGYR,-544,-32,17468*69
00:00:17.162;I;$POSMACC,-624,-358,31*60
00:00:17.160;I;$POSMVCC,4918*7F
00:00:17.441;A;$GPGGA,171537,3350.975,N,11823.991,W,2,07,1.1,-25.8,M,,M,1.8,,D*17
00:00:17.583;A;$GPGLL,3350.975,N,11823.991,W,171537,A,D*50
00:00:17.678;A;$GPRMC,171537,A,3350.975,N,11823.991,W,0.0,096.5,060401,013.0,E,D*07
00:00:17.829;A;$GPVTG,096.5,T,083.5,M,0.0,N,0.0,K,D*22
00:00:17.909;A;$GPGSA,A,2,04,09,07,24,02,05,26,,,,,,,1.1,*3C
00:00:18.007;A;$GPGSV,2,1,07,04,62,120,47,09,52,292,53,07,42,044,41,24,38,179,45*7B
00:00:18.163;I;$POSMGYR,-504,-8,17724*5F
00:00:18.163;I;$POSMACC,-625,-340,6*5C
00:00:18.161;I;$POSMVCC,4876*76
00:00:18.153;A;$GPGSV,2,2,07,02,34,101,43,05,18,304,40,26,09,223,36,,,,*48
00:00:18.279;A;$PRAYA,6,1,122,0,0,2,36,1,1,,,,,*5A
00:00:18.360;A;$GPDTM,W84,,0.000000,N,0.000000,E,0.0,W84*6F
00:00:18.453;A;$GPGGA,171538,3350.974,N,11823.991,W,2,07,1.1,-25.8,M,,M,1.8,,D*19
00:00:18.594;A;$GPGGA,171537,3350.975,N,11823.991,W,2,07,1.1,-25.8,M,,M,1.8,,D*17
00:00:18.736;A;$GPGLL,3350.975,N,11823.991,W,171537,A,D*50
00:00:18.829;A;$GPRMC,171537,A,3350.975,N,11823.991,W,0.0,096.5,060401,013.0,E,D*07
00:00:18.975;A;$GPVTG,096.5,T,083.5,M,0.0,N,0.0,K,D*22
00:00:19.059;A;$GPGSA,A,2,04,09,07,24,02,05,26,,,,,,,1.1,*3C
00:00:19.164;I;$POSMGYR,-596,16,17724*46
00:00:19.164;I;$POSMACC,-625,-337,32*6B
00:00:19.162;I;$POSMVCC,4876*76
00:00:19.160;A;$GPGSV,2,1,07,04,62,120,47,09,52,292,53,07,42,044,41,24,38,179,45*7B
00:00:19.304;A;$GPGSV,2,2,07,02,34,101,43,05,18,304,40,26,09,223,36,,,,*48
00:00:19.432;A;$PRAYA,6,1,122,0,0,2,36,1,1,,,,,*5A
00:00:19.508;A;$GPDTM,W84,,0.000000,N,0.000000,E,0.0,W84*6F
00:00:19.605;A;$GPGGA,171538,3350.974,N,11823.991,W,2,07,1.1,-25.8,M,,M,1.8,,D*19
00:00:19.747;A;$GPGGA,171537,3350.975,N,11823.991,W,2,07,1.1,-25.8,M,,M,1.8,,D*17
00:00:19.892;A;$GPGLL,3350.975,N,11823.991,W,171537,A,D*50
00:00:19.981;A;$GPRMC,171537,A,3350.975,N,11823.991,W,0.0,096.5,060401,013.0,E,D*07
00:00:20.165;I;$POSMGYR,-556,48,17740*43
00:00:20.165;I;$POSMACC,-612,-361,18*64
00:00:20.164;I;$POSMVCC,4876*76
00:00:20.126;A;$GPVTG,096.5,T,083.5,M,0.0,N,0.0,K,D*22
00:00:20.213;A;$GPGSA,A,2,04,09,07,24,02,05,26,,,,,,,1.1,*3C
00:00:20.311;A;$GPGSV,2,1,07,04,62,120,47,09,52,292,53,07,42,044,41,24,38,179,45*7B
00:00:20.456;A;$GPGSV,2,2,07,02,34,101,43,05,18,304,40,26,09,223,36,,,,*48
00:00:20.588;A;$PRAYA,6,1,122,0,0,2,36,1,1,,,,,*5A
00:00:20.661;A;$GPDTM,W84,,0.000000,N,0.000000,E,0.0,W84*6F
00:00:20.757;A;$GPGGA,171538,3350.974,N,11823.991,W,2,07,1.1,-25.8,M,,M,1.8,,D*19
00:00:20.898;A;$GPGGA,171537,3350.975,N,11823.991,W,2,07,1.1,-25.8,M,,M,1.8,,D*17
00:00:21.040;A;$GPGLL,3350.975,N,11823.991,W,171537,A,D*50
00:00:21.168;I;$POSMGYR,-536,-36,17700*65
00:00:21.168;I;$POSMACC,-620,-341,11*6E
00:00:21.166;I;$POSMVCC,4855*77
00:00:21.133;A;$GPRMC,171537,A,3350.975,N,11823.991,W,0.0,096.5,060401,013.0,E,D*07
00:00:21.280;A;$GPVTG,096.5,T,083.5,M,0.0,N,0.0,K,D*22
00:00:21.364;A;$GPGSA,A,2,04,09,07,24,02,05,26,,,,,,,1.1,*3C
00:00:21.462;A;$GPGSV,2,1,07,04,62,120,47,09,52,292,53,07,42,044,41,24,38,179,45*7B
00:00:21.608;A;$GPGSV,2,2,07,02,34,101,43,05,18,304,40,26,09,223,36,,,,*48
00:00:21.736;A;$PRAYA,6,1,122,0,0,2,36,1,1,,,,,*5A
00:00:21.812;A;$GPDTM,W84,,0.000000,N,0.000000,E,0.0,W84*6F
00:00:21.907;A;$GPGGA,171538,3350.974,N,11823.991,W,2,07,1.1,-25.8,M,,M,1.8,,D*19
00:00:22.170;I;$POSMGYR,-516,-24,17680*6D
00:00:22.170;I;$POSMACC,-627,-339,9*5F
00:00:22.168;I;$POSMVCC,4897*79
00:00:22.065;A;$GPGGA,171537,3350.975,N,11823.991,W,2,07,1.1,-25.8,M,,M,1.8,,D*17
00:00:22.192;A;$GPGLL,3350.975,N,11823.991,W,171537,A,D*50
00:00:22.285;A;$GPRMC,171537,A,3350.975,N,11823.991,W,0.0,096.5,060401,013.0,E,D*07
00:00:22.430;A;$GPVTG,096.5,T,083.5,M,0.0,N,0.0,K,D*22
00:00:22.517;A;$GPGSA,A,2,04,09,07,24,02,05,26,,,,,,,1.1,*3C
00:00:22.619;A;$GPGSV,2,1,07,04,62,120,47,09,52,292,53,07,42,044,41,24,38,179,45*7B
00:00:22.760;A;$GPGSV,2,2,07,02,34,101,43,05,18,304,40,26,09,223,36,,,,*48
00:00:22.889;A;$PRAYA,6,1,122,0,0,2,36,1,1,,,,,*5A
00:00:22.964;A;$GPDTM,W84,,0.000000,N,0.000000,E,0.0,W84*6F
00:00:23.172;I;$POSMGYR,-624,-96,17636*6B
00:00:23.172;I;$POSMACC,-620,-342,17*6B
00:00:23.170;I;$POSMVCC,4940*72
00:00:23.060;A;$GPGGA,171538,3350.974,N,11823.991,W,2,07,1.1,-25.8,M,,M,1.8,,D*19
00:00:23.201;A;$GPGGA,171537,3350.975,N,11823.991,W,2,07,1.1,-25.8,M,,M,1.8,,D*17
00:00:23.348;A;$GPGLL,3350.975,N,11823.991,W,171537,A,D*50
00:00:23.437;A;$GPRMC,171537,A,3350.975,N,11823.991,W,0.0,096.5,060401,013.0,E,D*07
00:00:23.582;A;$GPVTG,096.5,T,083.5,M,0.0,N,0.0,K,D*22
00:00:23.669;A;$GPGSA,A,2,04,09,07,24,02,05,26,,,,,,,1.1,*3C
00:00:23.767;A;$GPGSV,2,1,07,04,62,120,47,09,52,292,53,07,42,044,41,24,38,179,45*7B
00:00:23.913;A;$GPGSV,2,2,07,02,34,101,43,05,18,304,40,26,09,223,36,,,,*48
00:00:24.039;A;$PRAYA,6,1,122,0,0,2,36,1,1,,,,,*5A
00:00:24.175;I;$POSMGYR,-584,-116,17716*58
00:00:24.175;I;$POSMACC,-626,-345,3*5F
00:00:24.173;I;$POSMVCC,4834*70
00:00:24.120;A;$GPDTM,W84,,0.000000,N,0.000000,E,0.0,W84*6F
00:00:24.213;A;$GPGGA,171538,3350.974,N,11823.991,W,2,07,1.1,-25.8,M,,M,1.8,,D*19
00:00:24.354;A;$GPGGA,171537,3350.975,N,11823.991,W,2,07,1.1,-25.8,M,,M,1.8,,D*17
00:00:24.497;A;$GPGLL,3350.975,N,11823.991,W,171537,A,D*50
00:00:24.590;A;$GPRMC,171537,A,3350.975,N,11823.991,W,0.0,096.5,060401,013.0,E,D*07
00:00:24.735;A;$GPVTG,096.5,T,083.5,M,0.0,N,0.0,K,D*22
00:00:24.825;A;$GPGSA,A,2,04,09,07,24,02,05,26,,,,,,,1.1,*3C
00:00:24.919;A;$GPGSV,2,1,07,04,62,120,47,09,52,292,53,07,42,044,41,24,38,179,45*7B
00:00:25.178;I;$POSMGYR,-664,-80,17704*68
00:00:25.178;I;$POSMACC,-637,-338,43*61
00:00:25.176;I;$POSMVCC,4855*77
00:00:25.064;A;$GPGSV,2,2,07,02,34,101,43,05,18,304,40,26,09,223,36,,,,*48
00:00:25.193;A;$PRAYA,6,1,122,0,0,2,36,1,1,,,,,*5A
00:00:25.268;A;$GPDTM,W84,,0.000000,N,0.000000,E,0.0,W84*6F
00:00:25.364;A;$GPGGA,171538,3350.974,N,11823.991,W,2,07,1.1,-25.8,M,,M,1.8,,D*19
00:00:25.513;A;$GPGGA,171537,3350.975,N,11823.991,W,2,07,1.1,-25.8,M,,M,1.8,,D*17
00:00:25.648;A;$GPGLL,3350.975,N,11823.991,W,171537,A,D*50
00:00:25.741;A;$GPRMC,171537,A,3350.975,N,11823.991,W,0.0,096.5,060401,013.0,E,D*07
00:00:25.887;A;$GPVTG,096.5,T,083.5,M,0.0,N,0.0,K,D*22
00:00:25.971;A;$GPGSA,A,2,04,09,07,24,02,05,26,,,,,,,1.1,*3C
00:00:26.179;I;$POSMGYR,-524,4,17764*78
00:00:26.179;I;$POSMACC,-618,-366,6*56
00:00:26.177;I;$POSMVCC,4918*7F
00:00:26.072;A;$GPGSV,2,1,07,04,62,120,47,09,52,292,53,07,42,044,41,24,38,179,45*7B
00:00:26.217;A;$GPGSV,2,2,07,02,34,101,43,05,18,304,40,26,09,223,36,,,,*48
00:00:26.343;A;$PRAYA,6,1,122,0,0,2,36,1,1,,,,,*5A
00:00:26.421;A;$GPDTM,W84,,0.000000,N,0.000000,E,0.0,W84*6F
00:00:26.516;A;$GPGGA,171538,3350.974,N,11823.991,W,2,07,1.1,-25.8,M,,M,1.8,,D*19
00:00:26.657;A;$GPGGA,171537,3350.975,N,11823.991,W,2,07,1.1,-25.8,M,,M,1.8,,D*17
00:00:26.799;A;$GPGLL,3350.975,N,11823.991,W,171537,A,D*50
00:00:26.896;A;$GPRMC,171537,A,3350.975,N,11823.991,W,0.0,096.5,060401,013.0,E,D*07
00:00:27.039;A;$GPVTG,096.5,T,083.5,M,0.0,N,0.0,K,D*22
00:00:27.181;I;$POSMGYR,-524,-60,17632*65
00:00:27.181;I;$POSMACC,-635,-369,32*61
00:00:27.179;I;$POSMVCC,4876*76
00:00:27.123;A;$GPGSA,A,2,04,09,07,24,02,05,26,,,,,,,1.1,*3C
00:00:27.224;A;$GPGSV,2,1,07,04,62,120,47,09,52,292,53,07,42,044,41,24,38,179,45*7B
00:00:27.369;A;$GPGSV,2,2,07,02,34,101,43,05,18,304,40,26,09,223,36,,,,*48
00:00:27.496;A;$PRAYA,6,1,122,0,0,2,36,1,1,,,,,*5A
00:00:27.649;I;$POSMVCC,4855*77
00:00:27.651;I;$POSMSO,Stop NMEA Logger*3A
